[
{"pk":1,"model": "base.place", "fields": { "city": "Città GAS sede 1", "province": "MC",  "name": "Indi: GAS 1 sede", "lon": null, "lat": null,  "address": "indirizzo GAS 1 sede",  "description": "descrizione GAS 1 sede", "zipcode": "60XXX"} },
{"pk": 2,"model":"base.place", "fields": {"province": "MC", "city": "Città GAS sede 2", "name": "Indi: GAS 2 sede", "lon": null, "lat": null,  "address": "indirizzo GAS 2 sede",  "description": "descrizione GAS 2 sede", "zipcode": "60XXX"} },
{"pk": 3,"model":"base.place", "fields": {"province": "MC", "city": "Città GAS sede 3", "name": "Indi: GAS 3 sede", "lon": null, "lat": null,  "address": "indirizzo GAS 3 sede",  "description": "descrizione GAS 3 sede", "zipcode": "60XXX"} },
{"pk": 4,"model":"base.place", "fields": {"province": "MC", "city": "Città GAS sede 4", "name": "Indi: GAS 4 sede", "lon": null, "lat": null,  "address": "indirizzo GAS 4 sede",  "description": "descrizione GAS 4 sede", "zipcode": "60XXX"} },
{"pk": 5,"model":"base.place", "fields": {"province": "MC", "city": "Città GAS sede 5", "name": "Indi: GAS 5 sede", "lon": null, "lat": null,  "address": "indirizzo GAS 5 sede",  "description": "descrizione GAS 5 sede", "zipcode": "60XXX"} },
{"pk": 6,"model":"base.place", "fields": {"province": "MC", "city": "Città GAS sede 6", "name": "Indi: GAS 6 sede", "lon": null, "lat": null,  "address": "indirizzo GAS 6 sede",  "description": "descrizione GAS 6 sede", "zipcode": "60XXX"} },
{"pk": 7,"model":"base.place", "fields": {"province": "MC", "city": "Città GAS sede 7", "name": "Indi: GAS 7 sede", "lon": null, "lat": null,  "address": "indirizzo GAS 7 sede",  "description": "descrizione GAS 7 sede", "zipcode": "60XXX"} },
{"pk": 8,"model":"base.place", "fields": {"province": "MC", "city": "Città GAS sede 8", "name": "Indi: GAS 8 sede", "lon": null, "lat": null,  "address": "indirizzo GAS 8 sede",  "description": "descrizione GAS 8 sede", "zipcode": "60XXX"} },
{"pk": 9,"model":"base.place", "fields": {"province": "MC", "city": "Città GAS sede 9", "name": "Indi: GAS 9 sede", "lon": null, "lat": null,  "address": "indirizzo GAS 9 sede",  "description": "descrizione GAS 9 sede", "zipcode": "60XXX"} },
{"pk": 10,"model":"base.place", "fields": {"province": "MC", "city": "Città GAS sede 10", "name": "Indi: GAS 10 sede", "lon": null, "lat": null,  "address": "indirizzo GAS 10 sede",  "description": "descrizione GAS 10 sede", "zipcode": "60XXX"} },
{"pk": 11,"model":"base.place", "fields": {"province": "MC", "city": "Città GAS Rit. 1", "name": "Indi: GAS 1 ritiro default", "lon": null, "lat": null,  "address": "indirizzo GAS 1 ritiro default",  "description": "descrizione GAS 1 ritiro default", "zipcode": "60XXX"} },
{"pk": 12,"model":"base.place", "fields": {"province": "MC", "city": "Città GAS Rit. 2", "name": "Indi: GAS 2 ritiro default", "lon": null, "lat": null,  "address": "indirizzo GAS 2 ritiro default",  "description": "descrizione GAS 2 ritiro default", "zipcode": "60XXX"} },
{"pk": 13,"model":"base.place", "fields": {"province": "MC", "city": "Città GAS Rit. 3", "name": "Indi: GAS 3 ritiro default", "lon": null, "lat": null,  "address": "indirizzo GAS 3 ritiro default",  "description": "descrizione GAS 3 ritiro default", "zipcode": "60XXX"} },
{"pk": 14,"model":"base.place", "fields": {"province": "MC", "city": "Città GAS Rit. 4", "name": "Indi: GAS 4 ritiro default", "lon": null, "lat": null,  "address": "indirizzo GAS 4 ritiro default",  "description": "descrizione GAS 4 ritiro default", "zipcode": "60XXX"} },
{"pk": 15,"model":"base.place", "fields": {"province": "MC", "city": "Città GAS Rit. 5", "name": "Indi: GAS 5 ritiro default", "lon": null, "lat": null,  "address": "indirizzo GAS 5 ritiro default",  "description": "descrizione GAS 5 ritiro default", "zipcode": "60XXX"} },
{"pk": 16,"model":"base.place", "fields": {"province": "MC", "city": "Città GAS Rit. 6", "name": "Indi: GAS 6 ritiro default", "lon": null, "lat": null,  "address": "indirizzo GAS 6 ritiro default",  "description": "descrizione GAS 6 ritiro default", "zipcode": "60XXX"} },
{"pk": 17,"model":"base.place", "fields": {"province": "MC", "city": "Città GAS Rit. 7", "name": "Indi: GAS 7 ritiro default", "lon": null, "lat": null,  "address": "indirizzo GAS 7 ritiro default",  "description": "descrizione GAS 7 ritiro default", "zipcode": "60XXX"} },
{"pk": 18,"model":"base.place", "fields": {"province": "MC", "city": "Città GAS Rit. 8", "name": "Indi: GAS 8 ritiro default", "lon": null, "lat": null,  "address": "indirizzo GAS 8 ritiro default",  "description": "descrizione GAS 8 ritiro default", "zipcode": "60XXX"} },
{"pk": 19,"model":"base.place", "fields": {"province": "MC", "city": "Città GAS Rit. 9", "name": "Indi: GAS 9 ritiro default", "lon": null, "lat": null,  "address": "indirizzo GAS 9 ritiro default",  "description": "descrizione GAS 9 ritiro default", "zipcode": "60XXX"} },
{"pk": 20,"model":"base.place", "fields": {"province": "MC", "city": "Città GAS Rit. 10", "name": "Indi: GAS 10 ritiro default", "lon": null, "lat": null,  "address": "indirizzo GAS 10 ritiro default",  "description": "descrizione GAS 10 ritiro default", "zipcode": "60XXX"} },
{"pk": 21,"model":"base.place", "fields": {"province": "MC", "city": "Città Prod Pr. 1", "name": "Indi: Produttore 1 principale", "lon": null, "lat": null,  "address": "indirizzo Produttore 1 principale",  "description": "descrizione Produttore 1 principale", "zipcode": "60XXX"} },
{"pk": 22,"model":"base.place", "fields": {"province": "MC", "city": "Città Prod Pr. 2", "name": "Indi: Produttore 2 principale", "lon": null, "lat": null,  "address": "indirizzo Produttore 2 principale",  "description": "descrizione Produttore 2 principale", "zipcode": "60XXX"} },
{"pk": 23,"model":"base.place", "fields": {"province": "MC", "city": "Città Prod Pr. 3", "name": "Indi: Produttore 3 principale", "lon": null, "lat": null,  "address": "indirizzo Produttore 3 principale",  "description": "descrizione Produttore 3 principale", "zipcode": "60XXX"} },
{"pk": 24,"model":"base.place", "fields": {"province": "MC", "city": "Città Prod Pr. 4", "name": "Indi: Produttore 4 principale", "lon": null, "lat": null,  "address": "indirizzo Produttore 4 principale",  "description": "descrizione Produttore 4 principale", "zipcode": "60XXX"} },
{"pk": 25,"model":"base.place", "fields": {"province": "MC", "city": "Città Prod Pr. 5", "name": "Indi: Produttore 5 principale", "lon": null, "lat": null,  "address": "indirizzo Produttore 5 principale",  "description": "descrizione Produttore 5 principale", "zipcode": "60XXX"} },
{"pk": 26,"model":"base.place", "fields": {"province": "MC", "city": "Città Prod Pr. 6", "name": "Indi: Produttore 6 principale", "lon": null, "lat": null,  "address": "indirizzo Produttore 6 principale",  "description": "descrizione Produttore 6 principale", "zipcode": "60XXX"} },
{"pk": 27,"model":"base.place", "fields": {"province": "MC", "city": "Città Prod Pr. 7", "name": "Indi: Produttore 7 principale", "lon": null, "lat": null,  "address": "indirizzo Produttore 7 principale",  "description": "descrizione Produttore 7 principale", "zipcode": "60XXX"} },
{"pk": 28,"model":"base.place", "fields": {"province": "MC", "city": "Città Prod Pr. 8", "name": "Indi: Produttore 8 principale", "lon": null, "lat": null,  "address": "indirizzo Produttore 8 principale",  "description": "descrizione Produttore 8 principale", "zipcode": "60XXX"} },
{"pk": 29,"model":"base.place", "fields": {"province": "MC", "city": "Città Prod Pr. 9", "name": "Indi: Produttore 9 principale", "lon": null, "lat": null,  "address": "indirizzo Produttore 9 principale",  "description": "descrizione Produttore 9 principale", "zipcode": "60XXX"} },
{"pk": 30,"model":"base.place", "fields": {"province": "MC", "city": "Città Prod Pr. 10", "name": "Indi: Produttore 10 principale", "lon": null, "lat": null,  "address": "indirizzo Produttore 10 principale",  "description": "descrizione Produttore 10 principale", "zipcode": "60XXX"} },
{"pk": 31,"model":"base.place", "fields": {"province": "MC", "city": "Città Prod Pr. 11", "name": "Indi: Produttore 11 principale", "lon": null, "lat": null,  "address": "indirizzo Produttore 11 principale",  "description": "descrizione Produttore 11 principale", "zipcode": "60XXX"} },
{"pk": 32,"model":"base.place", "fields": {"province": "MC", "city": "Città Prod Pr. 12", "name": "Indi: Produttore 12 principale", "lon": null, "lat": null,  "address": "indirizzo Produttore 12 principale",  "description": "descrizione Produttore 12 principale", "zipcode": "60XXX"} },
{"pk": 33,"model":"base.place", "fields": {"province": "MC", "city": "Città Prod Pr. 13", "name": "Indi: Produttore 13 principale", "lon": null, "lat": null,  "address": "indirizzo Produttore 13 principale",  "description": "descrizione Produttore 13 principale", "zipcode": "60XXX"} },
{"pk": 34,"model":"base.place", "fields": {"province": "MC", "city": "Città Prod Pr. 14", "name": "Indi: Produttore 14 principale", "lon": null, "lat": null,  "address": "indirizzo Produttore 14 principale",  "description": "descrizione Produttore 14 principale", "zipcode": "60XXX"} },
{"pk": 35,"model":"base.place", "fields": {"province": "MC", "city": "Città Prod Pr. 15", "name": "Indi: Produttore 15 principale", "lon": null, "lat": null,  "address": "indirizzo Produttore 15 principale",  "description": "descrizione Produttore 15 principale", "zipcode": "60XXX"} },
{"pk": 36,"model":"base.place", "fields": {"province": "MC", "city": "Città Prod Pr. 16", "name": "Indi: Produttore 16 principale", "lon": null, "lat": null,  "address": "indirizzo Produttore 16 principale",  "description": "descrizione Produttore 16 principale", "zipcode": "60XXX"} },
{"pk": 37,"model":"base.place", "fields": {"province": "MC", "city": "Città Prod Pr. 17", "name": "Indi: Produttore 17 principale", "lon": null, "lat": null,  "address": "indirizzo Produttore 17 principale",  "description": "descrizione Produttore 17 principale", "zipcode": "60XXX"} },
{"pk": 38,"model":"base.place", "fields": {"province": "MC", "city": "Città Prod Pr. 18", "name": "Indi: Produttore 18 principale", "lon": null, "lat": null,  "address": "indirizzo Produttore 18 principale",  "description": "descrizione Produttore 18 principale", "zipcode": "60XXX"} },
{"pk": 39,"model":"base.place", "fields": {"province": "MC", "city": "Città Prod Pr. 19", "name": "Indi: Produttore 19 principale", "lon": null, "lat": null,  "address": "indirizzo Produttore 19 principale",  "description": "descrizione Produttore 19 principale", "zipcode": "60XXX"} },
{"pk": 40,"model":"base.place", "fields": {"province": "MC", "city": "Città Prod Pr. 20", "name": "Indi: Produttore 20 principale", "lon": null, "lat": null,  "address": "indirizzo Produttore 20 principale",  "description": "descrizione Produttore 20 principale", "zipcode": "60XXX"} },
{"pk": 41,"model":"base.place", "fields": {"province": "MC", "city": "Città Prod Pr. 21", "name": "Indi: Produttore 21 principale", "lon": null, "lat": null,  "address": "indirizzo Produttore 21 principale",  "description": "descrizione Produttore 21 principale", "zipcode": "60XXX"} },
{"pk": 42,"model":"base.place", "fields": {"province": "MC", "city": "Città Prod Pr. 22", "name": "Indi: Produttore 22 principale", "lon": null, "lat": null,  "address": "indirizzo Produttore 22 principale",  "description": "descrizione Produttore 22 principale", "zipcode": "60XXX"} },
{"pk": 43,"model":"base.place", "fields": {"province": "MC", "city": "Città Prod Pr. 23", "name": "Indi: Produttore 23 principale", "lon": null, "lat": null,  "address": "indirizzo Produttore 23 principale",  "description": "descrizione Produttore 23 principale", "zipcode": "60XXX"} },
{"pk": 44,"model":"base.place", "fields": {"province": "MC", "city": "Città Prod Pr. 24", "name": "Indi: Produttore 24 principale", "lon": null, "lat": null,  "address": "indirizzo Produttore 24 principale",  "description": "descrizione Produttore 24 principale", "zipcode": "60XXX"} },
{"pk": 45,"model":"base.place", "fields": {"province": "MC", "city": "Città Prod Pr. 25", "name": "Indi: Produttore 25 principale", "lon": null, "lat": null,  "address": "indirizzo Produttore 25 principale",  "description": "descrizione Produttore 25 principale", "zipcode": "60XXX"} },
{"pk": 46,"model":"base.place", "fields": {"province": "MC", "city": "Città Prod Pr. 26", "name": "Indi: Produttore 26 principale", "lon": null, "lat": null,  "address": "indirizzo Produttore 26 principale",  "description": "descrizione Produttore 26 principale", "zipcode": "60XXX"} },
{"pk": 47,"model":"base.place", "fields": {"province": "MC", "city": "Città Prod Pr. 27", "name": "Indi: Produttore 27 principale", "lon": null, "lat": null,  "address": "indirizzo Produttore 27 principale",  "description": "descrizione Produttore 27 principale", "zipcode": "60XXX"} },
{"pk": 48,"model":"base.place", "fields": {"province": "MC", "city": "Città Prod Pr. 28", "name": "Indi: Produttore 28 principale", "lon": null, "lat": null,  "address": "indirizzo Produttore 28 principale",  "description": "descrizione Produttore 28 principale", "zipcode": "60XXX"} },
{"pk": 49,"model":"base.place", "fields": {"province": "MC", "city": "Città Prod Pr. 29", "name": "Indi: Produttore 29 principale", "lon": null, "lat": null,  "address": "indirizzo Produttore 29 principale",  "description": "descrizione Produttore 29 principale", "zipcode": "60XXX"} },
{"pk": 50,"model":"base.place", "fields": {"province": "MC", "city": "Città Prod Pr. 30", "name": "Indi: Produttore 30 principale", "lon": null, "lat": null,  "address": "indirizzo Produttore 30 principale",  "description": "descrizione Produttore 30 principale", "zipcode": "60XXX"} },
{"pk": 51,"model":"base.place", "fields": {"province": "MC", "city": "Città Prod Pr. 31", "name": "Indi: Produttore 31 principale", "lon": null, "lat": null,  "address": "indirizzo Produttore 31 principale",  "description": "descrizione Produttore 31 principale", "zipcode": "60XXX"} },
{"pk": 52,"model":"base.place", "fields": {"province": "MC", "city": "Città Prod Pr. 32", "name": "Indi: Produttore 32 principale", "lon": null, "lat": null,  "address": "indirizzo Produttore 32 principale",  "description": "descrizione Produttore 32 principale", "zipcode": "60XXX"} },
{"pk": 53,"model":"base.place", "fields": {"province": "MC", "city": "Città Prod Pr. 33", "name": "Indi: Produttore 33 principale", "lon": null, "lat": null,  "address": "indirizzo Produttore 33 principale",  "description": "descrizione Produttore 33 principale", "zipcode": "60XXX"} },
{"pk": 54,"model":"base.place", "fields": {"province": "MC", "city": "Città Prod Pr. 34", "name": "Indi: Produttore 34 principale", "lon": null, "lat": null,  "address": "indirizzo Produttore 34 principale",  "description": "descrizione Produttore 34 principale", "zipcode": "60XXX"} },
{"pk": 55,"model":"base.place", "fields": {"province": "MC", "city": "Città Prod Pr. 35", "name": "Indi: Produttore 35 principale", "lon": null, "lat": null,  "address": "indirizzo Produttore 35 principale",  "description": "descrizione Produttore 35 principale", "zipcode": "60XXX"} },
{"pk": 56,"model":"base.place", "fields": {"province": "MC", "city": "Città Prod Pr. 36", "name": "Indi: Produttore 36 principale", "lon": null, "lat": null,  "address": "indirizzo Produttore 36 principale",  "description": "descrizione Produttore 36 principale", "zipcode": "60XXX"} },
{"pk": 57,"model":"base.place", "fields": {"province": "MC", "city": "Città Prod Pr. 37", "name": "Indi: Produttore 37 principale", "lon": null, "lat": null,  "address": "indirizzo Produttore 37 principale",  "description": "descrizione Produttore 37 principale", "zipcode": "60XXX"} },
{"pk": 58,"model":"base.place", "fields": {"province": "MC", "city": "Città Prod Pr. 38", "name": "Indi: Produttore 38 principale", "lon": null, "lat": null,  "address": "indirizzo Produttore 38 principale",  "description": "descrizione Produttore 38 principale", "zipcode": "60XXX"} },
{"pk": 59,"model":"base.place", "fields": {"province": "MC", "city": "Città Prod Pr. 39", "name": "Indi: Produttore 39 principale", "lon": null, "lat": null,  "address": "indirizzo Produttore 39 principale",  "description": "descrizione Produttore 39 principale", "zipcode": "60XXX"} },
{"pk": 60,"model":"base.place", "fields": {"province": "MC", "city": "Città Prod Pr. 40", "name": "Indi: Produttore 40 principale", "lon": null, "lat": null,  "address": "indirizzo Produttore 40 principale",  "description": "descrizione Produttore 40 principale", "zipcode": "60XXX"} },
{"pk": 61,"model":"base.place", "fields": {"province": "MC", "city": "Città Prod Pr. 41", "name": "Indi: Produttore 41 principale", "lon": null, "lat": null,  "address": "indirizzo Produttore 41 principale",  "description": "descrizione Produttore 41 principale", "zipcode": "60XXX"} },
{"pk": 62,"model":"base.place", "fields": {"province": "MC", "city": "Città Prod Pr. 42", "name": "Indi: Produttore 42 principale", "lon": null, "lat": null,  "address": "indirizzo Produttore 42 principale",  "description": "descrizione Produttore 42 principale", "zipcode": "60XXX"} },
{"pk": 63,"model":"base.place", "fields": {"province": "MC", "city": "Città Prod Pr. 43", "name": "Indi: Produttore 43 principale", "lon": null, "lat": null,  "address": "indirizzo Produttore 43 principale",  "description": "descrizione Produttore 43 principale", "zipcode": "60XXX"} },
{"pk": 64,"model":"base.place", "fields": {"province": "MC", "city": "Città Prod Pr. 44", "name": "Indi: Produttore 44 principale", "lon": null, "lat": null,  "address": "indirizzo Produttore 44 principale",  "description": "descrizione Produttore 44 principale", "zipcode": "60XXX"} },
{"pk": 65,"model":"base.place", "fields": {"province": "MC", "city": "Città Prod Pr. 45", "name": "Indi: Produttore 45 principale", "lon": null, "lat": null,  "address": "indirizzo Produttore 45 principale",  "description": "descrizione Produttore 45 principale", "zipcode": "60XXX"} },
{"pk": 66,"model":"base.place", "fields": {"province": "MC", "city": "Città Prod Pr. 46", "name": "Indi: Produttore 46 principale", "lon": null, "lat": null,  "address": "indirizzo Produttore 46 principale",  "description": "descrizione Produttore 46 principale", "zipcode": "60XXX"} },
{"pk": 67,"model":"base.place", "fields": {"province": "MC", "city": "Città Prod Pr. 47", "name": "Indi: Produttore 47 principale", "lon": null, "lat": null,  "address": "indirizzo Produttore 47 principale",  "description": "descrizione Produttore 47 principale", "zipcode": "60XXX"} },
{"pk": 68,"model":"base.place", "fields": {"province": "MC", "city": "Città Prod Pr. 48", "name": "Indi: Produttore 48 principale", "lon": null, "lat": null,  "address": "indirizzo Produttore 48 principale",  "description": "descrizione Produttore 48 principale", "zipcode": "60XXX"} },
{"pk": 69,"model":"base.place", "fields": {"province": "MC", "city": "Città Prod Pr. 49", "name": "Indi: Produttore 49 principale", "lon": null, "lat": null,  "address": "indirizzo Produttore 49 principale",  "description": "descrizione Produttore 49 principale", "zipcode": "60XXX"} },
{"pk": 70,"model":"base.place", "fields": {"province": "MC", "city": "Città Prod Pr. 50", "name": "Indi: Produttore 50 principale", "lon": null, "lat": null,  "address": "indirizzo Produttore 50 principale",  "description": "descrizione Produttore 50 principale", "zipcode": "60XXX"} },
{"pk": 71,"model":"base.place", "fields": {"province": "MC", "city": "Città Prod Ctc. 1", "name": "Indi: Produttore 1 contatto", "lon": null, "lat": null,  "address": "indirizzo Produttore 1 contatto",  "description": "descrizione Produttore 1 contatto", "zipcode": "60XXX"} },
{"pk": 72,"model":"base.place", "fields": {"province": "MC", "city": "Città Prod Ctc. 2", "name": "Indi: Produttore 2 contatto", "lon": null, "lat": null,  "address": "indirizzo Produttore 2 contatto",  "description": "descrizione Produttore 2 contatto", "zipcode": "60XXX"} },
{"pk": 73,"model":"base.place", "fields": {"province": "MC", "city": "Città Prod Ctc. 3", "name": "Indi: Produttore 3 contatto", "lon": null, "lat": null,  "address": "indirizzo Produttore 3 contatto",  "description": "descrizione Produttore 3 contatto", "zipcode": "60XXX"} },
{"pk": 74,"model":"base.place", "fields": {"province": "MC", "city": "Città Prod Ctc. 4", "name": "Indi: Produttore 4 contatto", "lon": null, "lat": null,  "address": "indirizzo Produttore 4 contatto",  "description": "descrizione Produttore 4 contatto", "zipcode": "60XXX"} },
{"pk": 75,"model":"base.place", "fields": {"province": "MC", "city": "Città Prod Ctc. 5", "name": "Indi: Produttore 5 contatto", "lon": null, "lat": null,  "address": "indirizzo Produttore 5 contatto",  "description": "descrizione Produttore 5 contatto", "zipcode": "60XXX"} },
{"pk": 76,"model":"base.place", "fields": {"province": "MC", "city": "Città Prod Ctc. 6", "name": "Indi: Produttore 6 contatto", "lon": null, "lat": null,  "address": "indirizzo Produttore 6 contatto",  "description": "descrizione Produttore 6 contatto", "zipcode": "60XXX"} },
{"pk": 77,"model":"base.place", "fields": {"province": "MC", "city": "Città Prod Ctc. 7", "name": "Indi: Produttore 7 contatto", "lon": null, "lat": null,  "address": "indirizzo Produttore 7 contatto",  "description": "descrizione Produttore 7 contatto", "zipcode": "60XXX"} },
{"pk": 78,"model":"base.place", "fields": {"province": "MC", "city": "Città Prod Ctc. 8", "name": "Indi: Produttore 8 contatto", "lon": null, "lat": null,  "address": "indirizzo Produttore 8 contatto",  "description": "descrizione Produttore 8 contatto", "zipcode": "60XXX"} },
{"pk": 79,"model":"base.place", "fields": {"province": "MC", "city": "Città Prod Ctc. 9", "name": "Indi: Produttore 9 contatto", "lon": null, "lat": null,  "address": "indirizzo Produttore 9 contatto",  "description": "descrizione Produttore 9 contatto", "zipcode": "60XXX"} },
{"pk": 80,"model":"base.place", "fields": {"province": "MC", "city": "Città Prod Ctc. 10", "name": "Indi: Produttore 10 contatto", "lon": null, "lat": null,  "address": "indirizzo Produttore 10 contatto",  "description": "descrizione Produttore 10 contatto", "zipcode": "60XXX"} },
{"pk": 81,"model":"base.place", "fields": {"province": "MC", "city": "Città Prod Ctc. 11", "name": "Indi: Produttore 11 contatto", "lon": null, "lat": null,  "address": "indirizzo Produttore 11 contatto",  "description": "descrizione Produttore 11 contatto", "zipcode": "60XXX"} },
{"pk": 82,"model":"base.place", "fields": {"province": "MC", "city": "Città Prod Ctc. 12", "name": "Indi: Produttore 12 contatto", "lon": null, "lat": null,  "address": "indirizzo Produttore 12 contatto",  "description": "descrizione Produttore 12 contatto", "zipcode": "60XXX"} },
{"pk": 83,"model":"base.place", "fields": {"province": "MC", "city": "Città Prod Ctc. 13", "name": "Indi: Produttore 13 contatto", "lon": null, "lat": null,  "address": "indirizzo Produttore 13 contatto",  "description": "descrizione Produttore 13 contatto", "zipcode": "60XXX"} },
{"pk": 84,"model":"base.place", "fields": {"province": "MC", "city": "Città Prod Ctc. 14", "name": "Indi: Produttore 14 contatto", "lon": null, "lat": null,  "address": "indirizzo Produttore 14 contatto",  "description": "descrizione Produttore 14 contatto", "zipcode": "60XXX"} },
{"pk": 85,"model":"base.place", "fields": {"province": "MC", "city": "Città Prod Ctc. 15", "name": "Indi: Produttore 15 contatto", "lon": null, "lat": null,  "address": "indirizzo Produttore 15 contatto",  "description": "descrizione Produttore 15 contatto", "zipcode": "60XXX"} },
{"pk": 86,"model":"base.place", "fields": {"province": "MC", "city": "Città Prod Ctc. 16", "name": "Indi: Produttore 16 contatto", "lon": null, "lat": null,  "address": "indirizzo Produttore 16 contatto",  "description": "descrizione Produttore 16 contatto", "zipcode": "60XXX"} },
{"pk": 87,"model":"base.place", "fields": {"province": "MC", "city": "Città Prod Ctc. 17", "name": "Indi: Produttore 17 contatto", "lon": null, "lat": null,  "address": "indirizzo Produttore 17 contatto",  "description": "descrizione Produttore 17 contatto", "zipcode": "60XXX"} },
{"pk": 88,"model":"base.place", "fields": {"province": "MC", "city": "Città Prod Ctc. 18", "name": "Indi: Produttore 18 contatto", "lon": null, "lat": null,  "address": "indirizzo Produttore 18 contatto",  "description": "descrizione Produttore 18 contatto", "zipcode": "60XXX"} },
{"pk": 89,"model":"base.place", "fields": {"province": "MC", "city": "Città Prod Ctc. 19", "name": "Indi: Produttore 19 contatto", "lon": null, "lat": null,  "address": "indirizzo Produttore 19 contatto",  "description": "descrizione Produttore 19 contatto", "zipcode": "60XXX"} },
{"pk": 90,"model":"base.place", "fields": {"province": "MC", "city": "Città Prod Ctc. 20", "name": "Indi: Produttore 20 contatto", "lon": null, "lat": null,  "address": "indirizzo Produttore 20 contatto",  "description": "descrizione Produttore 20 contatto", "zipcode": "60XXX"} },
{"pk": 91,"model":"base.place", "fields": {"province": "MC", "city": "Città Prod Ctc. 21", "name": "Indi: Produttore 21 contatto", "lon": null, "lat": null,  "address": "indirizzo Produttore 21 contatto",  "description": "descrizione Produttore 21 contatto", "zipcode": "60XXX"} },
{"pk": 92,"model":"base.place", "fields": {"province": "MC", "city": "Città Prod Ctc. 22", "name": "Indi: Produttore 22 contatto", "lon": null, "lat": null,  "address": "indirizzo Produttore 22 contatto",  "description": "descrizione Produttore 22 contatto", "zipcode": "60XXX"} },
{"pk": 93,"model":"base.place", "fields": {"province": "MC", "city": "Città Prod Ctc. 23", "name": "Indi: Produttore 23 contatto", "lon": null, "lat": null,  "address": "indirizzo Produttore 23 contatto",  "description": "descrizione Produttore 23 contatto", "zipcode": "60XXX"} },
{"pk": 94,"model":"base.place", "fields": {"province": "MC", "city": "Città Prod Ctc. 24", "name": "Indi: Produttore 24 contatto", "lon": null, "lat": null,  "address": "indirizzo Produttore 24 contatto",  "description": "descrizione Produttore 24 contatto", "zipcode": "60XXX"} },
{"pk": 95,"model":"base.place", "fields": {"province": "MC", "city": "Città Prod Ctc. 25", "name": "Indi: Produttore 25 contatto", "lon": null, "lat": null,  "address": "indirizzo Produttore 25 contatto",  "description": "descrizione Produttore 25 contatto", "zipcode": "60XXX"} },
{"pk": 96,"model":"base.place", "fields": {"province": "MC", "city": "Città Prod Ctc. 26", "name": "Indi: Produttore 26 contatto", "lon": null, "lat": null,  "address": "indirizzo Produttore 26 contatto",  "description": "descrizione Produttore 26 contatto", "zipcode": "60XXX"} },
{"pk": 97,"model":"base.place", "fields": {"province": "MC", "city": "Città Prod Ctc. 27", "name": "Indi: Produttore 27 contatto", "lon": null, "lat": null,  "address": "indirizzo Produttore 27 contatto",  "description": "descrizione Produttore 27 contatto", "zipcode": "60XXX"} },
{"pk": 98,"model":"base.place", "fields": {"province": "MC", "city": "Città Prod Ctc. 28", "name": "Indi: Produttore 28 contatto", "lon": null, "lat": null,  "address": "indirizzo Produttore 28 contatto",  "description": "descrizione Produttore 28 contatto", "zipcode": "60XXX"} },
{"pk": 99,"model":"base.place", "fields": {"province": "MC", "city": "Città Prod Ctc. 29", "name": "Indi: Produttore 29 contatto", "lon": null, "lat": null,  "address": "indirizzo Produttore 29 contatto",  "description": "descrizione Produttore 29 contatto", "zipcode": "60XXX"} },
{"pk": 100,"model":"base.place", "fields": {"province": "MC", "city": "Città Prod Ctc. 30", "name": "Indi: Produttore 30 contatto", "lon": null, "lat": null,  "address": "indirizzo Produttore 30 contatto",  "description": "descrizione Produttore 30 contatto", "zipcode": "60XXX"} },
{"pk": 101,"model":"base.place", "fields": {"province": "MC", "city": "Città Prod Ctc. 31", "name": "Indi: Produttore 31 contatto", "lon": null, "lat": null,  "address": "indirizzo Produttore 31 contatto",  "description": "descrizione Produttore 31 contatto", "zipcode": "60XXX"} },
{"pk": 102,"model":"base.place", "fields": {"province": "MC", "city": "Città Prod Ctc. 32", "name": "Indi: Produttore 32 contatto", "lon": null, "lat": null,  "address": "indirizzo Produttore 32 contatto",  "description": "descrizione Produttore 32 contatto", "zipcode": "60XXX"} },
{"pk": 103,"model":"base.place", "fields": {"province": "MC", "city": "Città Prod Ctc. 33", "name": "Indi: Produttore 33 contatto", "lon": null, "lat": null,  "address": "indirizzo Produttore 33 contatto",  "description": "descrizione Produttore 33 contatto", "zipcode": "60XXX"} },
{"pk": 104,"model":"base.place", "fields": {"province": "MC", "city": "Città Prod Ctc. 34", "name": "Indi: Produttore 34 contatto", "lon": null, "lat": null,  "address": "indirizzo Produttore 34 contatto",  "description": "descrizione Produttore 34 contatto", "zipcode": "60XXX"} },
{"pk": 105,"model":"base.place", "fields": {"province": "MC", "city": "Città Prod Ctc. 35", "name": "Indi: Produttore 35 contatto", "lon": null, "lat": null,  "address": "indirizzo Produttore 35 contatto",  "description": "descrizione Produttore 35 contatto", "zipcode": "60XXX"} },
{"pk": 106,"model":"base.place", "fields": {"province": "MC", "city": "Città Prod Ctc. 36", "name": "Indi: Produttore 36 contatto", "lon": null, "lat": null,  "address": "indirizzo Produttore 36 contatto",  "description": "descrizione Produttore 36 contatto", "zipcode": "60XXX"} },
{"pk": 107,"model":"base.place", "fields": {"province": "MC", "city": "Città Prod Ctc. 37", "name": "Indi: Produttore 37 contatto", "lon": null, "lat": null,  "address": "indirizzo Produttore 37 contatto",  "description": "descrizione Produttore 37 contatto", "zipcode": "60XXX"} },
{"pk": 108,"model":"base.place", "fields": {"province": "MC", "city": "Città Prod Ctc. 38", "name": "Indi: Produttore 38 contatto", "lon": null, "lat": null,  "address": "indirizzo Produttore 38 contatto",  "description": "descrizione Produttore 38 contatto", "zipcode": "60XXX"} },
{"pk": 109,"model":"base.place", "fields": {"province": "MC", "city": "Città Prod Ctc. 39", "name": "Indi: Produttore 39 contatto", "lon": null, "lat": null,  "address": "indirizzo Produttore 39 contatto",  "description": "descrizione Produttore 39 contatto", "zipcode": "60XXX"} },
{"pk": 110,"model":"base.place", "fields": {"province": "MC", "city": "Città Prod Ctc. 40", "name": "Indi: Produttore 40 contatto", "lon": null, "lat": null,  "address": "indirizzo Produttore 40 contatto",  "description": "descrizione Produttore 40 contatto", "zipcode": "60XXX"} },
{"pk": 111,"model":"base.place", "fields": {"province": "MC", "city": "Città Prod Ctc. 41", "name": "Indi: Produttore 41 contatto", "lon": null, "lat": null,  "address": "indirizzo Produttore 41 contatto",  "description": "descrizione Produttore 41 contatto", "zipcode": "60XXX"} },
{"pk": 112,"model":"base.place", "fields": {"province": "MC", "city": "Città Prod Ctc. 42", "name": "Indi: Produttore 42 contatto", "lon": null, "lat": null,  "address": "indirizzo Produttore 42 contatto",  "description": "descrizione Produttore 42 contatto", "zipcode": "60XXX"} },
{"pk": 113,"model":"base.place", "fields": {"province": "MC", "city": "Città Prod Ctc. 43", "name": "Indi: Produttore 43 contatto", "lon": null, "lat": null,  "address": "indirizzo Produttore 43 contatto",  "description": "descrizione Produttore 43 contatto", "zipcode": "60XXX"} },
{"pk": 114,"model":"base.place", "fields": {"province": "MC", "city": "Città Prod Ctc. 44", "name": "Indi: Produttore 44 contatto", "lon": null, "lat": null,  "address": "indirizzo Produttore 44 contatto",  "description": "descrizione Produttore 44 contatto", "zipcode": "60XXX"} },
{"pk": 115,"model":"base.place", "fields": {"province": "MC", "city": "Città Prod Ctc. 45", "name": "Indi: Produttore 45 contatto", "lon": null, "lat": null,  "address": "indirizzo Produttore 45 contatto",  "description": "descrizione Produttore 45 contatto", "zipcode": "60XXX"} },
{"pk": 116,"model":"base.place", "fields": {"province": "MC", "city": "Città Prod Ctc. 46", "name": "Indi: Produttore 46 contatto", "lon": null, "lat": null,  "address": "indirizzo Produttore 46 contatto",  "description": "descrizione Produttore 46 contatto", "zipcode": "60XXX"} },
{"pk": 117,"model":"base.place", "fields": {"province": "MC", "city": "Città Prod Ctc. 47", "name": "Indi: Produttore 47 contatto", "lon": null, "lat": null,  "address": "indirizzo Produttore 47 contatto",  "description": "descrizione Produttore 47 contatto", "zipcode": "60XXX"} },
{"pk": 118,"model":"base.place", "fields": {"province": "MC", "city": "Città Prod Ctc. 48", "name": "Indi: Produttore 48 contatto", "lon": null, "lat": null,  "address": "indirizzo Produttore 48 contatto",  "description": "descrizione Produttore 48 contatto", "zipcode": "60XXX"} },
{"pk": 119,"model":"base.place", "fields": {"province": "MC", "city": "Città Prod Ctc. 49", "name": "Indi: Produttore 49 contatto", "lon": null, "lat": null,  "address": "indirizzo Produttore 49 contatto",  "description": "descrizione Produttore 49 contatto", "zipcode": "60XXX"} },
{"pk": 120,"model":"base.place", "fields": {"province": "MC", "city": "Città Prod Ctc. 50", "name": "Indi: Produttore 50 contatto", "lon": null, "lat": null,  "address": "indirizzo Produttore 50 contatto",  "description": "descrizione Produttore 50 contatto", "zipcode": "60XXX"} },
{"pk": 121,"model":"base.place", "fields": {"province": "MC", "city": "Città Gassista 1", "name": "Indi: Gassista 1 casa", "lon": null, "lat": null,  "address": "indirizzo Gassista 1 casa",  "description": "descrizione Gassista 1 casa", "zipcode": "60XXX"} },
{"pk": 122,"model":"base.place", "fields": {"province": "MC", "city": "Città Gassista 2", "name": "Indi: Gassista 2 casa", "lon": null, "lat": null,  "address": "indirizzo Gassista 2 casa",  "description": "descrizione Gassista 2 casa", "zipcode": "60XXX"} },
{"pk": 123,"model":"base.place", "fields": {"province": "MC", "city": "Città Gassista 3", "name": "Indi: Gassista 3 casa", "lon": null, "lat": null,  "address": "indirizzo Gassista 3 casa",  "description": "descrizione Gassista 3 casa", "zipcode": "60XXX"} },
{"pk": 124,"model":"base.place", "fields": {"province": "MC", "city": "Città Gassista 4", "name": "Indi: Gassista 4 casa", "lon": null, "lat": null,  "address": "indirizzo Gassista 4 casa",  "description": "descrizione Gassista 4 casa", "zipcode": "60XXX"} },
{"pk": 125,"model":"base.place", "fields": {"province": "MC", "city": "Città Gassista 5", "name": "Indi: Gassista 5 casa", "lon": null, "lat": null,  "address": "indirizzo Gassista 5 casa",  "description": "descrizione Gassista 5 casa", "zipcode": "60XXX"} },
{"pk": 126,"model":"base.place", "fields": {"province": "MC", "city": "Città Gassista 6", "name": "Indi: Gassista 6 casa", "lon": null, "lat": null,  "address": "indirizzo Gassista 6 casa",  "description": "descrizione Gassista 6 casa", "zipcode": "60XXX"} },
{"pk": 127,"model":"base.place", "fields": {"province": "MC", "city": "Città Gassista 7", "name": "Indi: Gassista 7 casa", "lon": null, "lat": null,  "address": "indirizzo Gassista 7 casa",  "description": "descrizione Gassista 7 casa", "zipcode": "60XXX"} },
{"pk": 128,"model":"base.place", "fields": {"province": "MC", "city": "Città Gassista 8", "name": "Indi: Gassista 8 casa", "lon": null, "lat": null,  "address": "indirizzo Gassista 8 casa",  "description": "descrizione Gassista 8 casa", "zipcode": "60XXX"} },
{"pk": 129,"model":"base.place", "fields": {"province": "MC", "city": "Città Gassista 9", "name": "Indi: Gassista 9 casa", "lon": null, "lat": null,  "address": "indirizzo Gassista 9 casa",  "description": "descrizione Gassista 9 casa", "zipcode": "60XXX"} },
{"pk": 130,"model":"base.place", "fields": {"province": "MC", "city": "Città Gassista 10", "name": "Indi: Gassista 10 casa", "lon": null, "lat": null,  "address": "indirizzo Gassista 10 casa",  "description": "descrizione Gassista 10 casa", "zipcode": "60XXX"} },
{"pk": 131,"model":"base.place", "fields": {"province": "MC", "city": "Città Gassista 11", "name": "Indi: Gassista 11 casa", "lon": null, "lat": null,  "address": "indirizzo Gassista 11 casa",  "description": "descrizione Gassista 11 casa", "zipcode": "60XXX"} },
{"pk": 132,"model":"base.place", "fields": {"province": "MC", "city": "Città Gassista 12", "name": "Indi: Gassista 12 casa", "lon": null, "lat": null,  "address": "indirizzo Gassista 12 casa",  "description": "descrizione Gassista 12 casa", "zipcode": "60XXX"} },
{"pk": 133,"model":"base.place", "fields": {"province": "MC", "city": "Città Gassista 13", "name": "Indi: Gassista 13 casa", "lon": null, "lat": null,  "address": "indirizzo Gassista 13 casa",  "description": "descrizione Gassista 13 casa", "zipcode": "60XXX"} },
{"pk": 134,"model":"base.place", "fields": {"province": "MC", "city": "Città Gassista 14", "name": "Indi: Gassista 14 casa", "lon": null, "lat": null,  "address": "indirizzo Gassista 14 casa",  "description": "descrizione Gassista 14 casa", "zipcode": "60XXX"} },
{"pk": 135,"model":"base.place", "fields": {"province": "MC", "city": "Città Gassista 15", "name": "Indi: Gassista 15 casa", "lon": null, "lat": null,  "address": "indirizzo Gassista 15 casa",  "description": "descrizione Gassista 15 casa", "zipcode": "60XXX"} },
{"pk": 136,"model":"base.place", "fields": {"province": "MC", "city": "Città Gassista 16", "name": "Indi: Gassista 16 casa", "lon": null, "lat": null,  "address": "indirizzo Gassista 16 casa",  "description": "descrizione Gassista 16 casa", "zipcode": "60XXX"} },
{"pk": 137,"model":"base.place", "fields": {"province": "MC", "city": "Città Gassista 17", "name": "Indi: Gassista 17 casa", "lon": null, "lat": null,  "address": "indirizzo Gassista 17 casa",  "description": "descrizione Gassista 17 casa", "zipcode": "60XXX"} },
{"pk": 138,"model":"base.place", "fields": {"province": "MC", "city": "Città Gassista 18", "name": "Indi: Gassista 18 casa", "lon": null, "lat": null,  "address": "indirizzo Gassista 18 casa",  "description": "descrizione Gassista 18 casa", "zipcode": "60XXX"} },
{"pk": 139,"model":"base.place", "fields": {"province": "MC", "city": "Città Gassista 19", "name": "Indi: Gassista 19 casa", "lon": null, "lat": null,  "address": "indirizzo Gassista 19 casa",  "description": "descrizione Gassista 19 casa", "zipcode": "60XXX"} },
{"pk": 140,"model":"base.place", "fields": {"province": "MC", "city": "Città Gassista 20", "name": "Indi: Gassista 20 casa", "lon": null, "lat": null,  "address": "indirizzo Gassista 20 casa",  "description": "descrizione Gassista 20 casa", "zipcode": "60XXX"} },
{"pk": 141,"model":"base.place", "fields": {"province": "MC", "city": "Città Gassista 21", "name": "Indi: Gassista 21 casa", "lon": null, "lat": null,  "address": "indirizzo Gassista 21 casa",  "description": "descrizione Gassista 21 casa", "zipcode": "60XXX"} },
{"pk": 142,"model":"base.place", "fields": {"province": "MC", "city": "Città Gassista 22", "name": "Indi: Gassista 22 casa", "lon": null, "lat": null,  "address": "indirizzo Gassista 22 casa",  "description": "descrizione Gassista 22 casa", "zipcode": "60XXX"} },
{"pk": 143,"model":"base.place", "fields": {"province": "MC", "city": "Città Gassista 23", "name": "Indi: Gassista 23 casa", "lon": null, "lat": null,  "address": "indirizzo Gassista 23 casa",  "description": "descrizione Gassista 23 casa", "zipcode": "60XXX"} },
{"pk": 144,"model":"base.place", "fields": {"province": "MC", "city": "Città Gassista 24", "name": "Indi: Gassista 24 casa", "lon": null, "lat": null,  "address": "indirizzo Gassista 24 casa",  "description": "descrizione Gassista 24 casa", "zipcode": "60XXX"} },
{"pk": 145,"model":"base.place", "fields": {"province": "MC", "city": "Città Gassista 25", "name": "Indi: Gassista 25 casa", "lon": null, "lat": null,  "address": "indirizzo Gassista 25 casa",  "description": "descrizione Gassista 25 casa", "zipcode": "60XXX"} },
{"pk": 146,"model":"base.place", "fields": {"province": "MC", "city": "Città Gassista 26", "name": "Indi: Gassista 26 casa", "lon": null, "lat": null,  "address": "indirizzo Gassista 26 casa",  "description": "descrizione Gassista 26 casa", "zipcode": "60XXX"} },
{"pk": 147,"model":"base.place", "fields": {"province": "MC", "city": "Città Gassista 27", "name": "Indi: Gassista 27 casa", "lon": null, "lat": null,  "address": "indirizzo Gassista 27 casa",  "description": "descrizione Gassista 27 casa", "zipcode": "60XXX"} },
{"pk": 148,"model":"base.place", "fields": {"province": "MC", "city": "Città Gassista 28", "name": "Indi: Gassista 28 casa", "lon": null, "lat": null,  "address": "indirizzo Gassista 28 casa",  "description": "descrizione Gassista 28 casa", "zipcode": "60XXX"} },
{"pk": 149,"model":"base.place", "fields": {"province": "MC", "city": "Città Gassista 29", "name": "Indi: Gassista 29 casa", "lon": null, "lat": null,  "address": "indirizzo Gassista 29 casa",  "description": "descrizione Gassista 29 casa", "zipcode": "60XXX"} },
{"pk": 150,"model":"base.place", "fields": {"province": "MC", "city": "Città Gassista 30", "name": "Indi: Gassista 30 casa", "lon": null, "lat": null,  "address": "indirizzo Gassista 30 casa",  "description": "descrizione Gassista 30 casa", "zipcode": "60XXX"} },
{"pk": 151,"model":"base.place", "fields": {"province": "MC", "city": "Città Gassista 31", "name": "Indi: Gassista 31 casa", "lon": null, "lat": null,  "address": "indirizzo Gassista 31 casa",  "description": "descrizione Gassista 31 casa", "zipcode": "60XXX"} },
{"pk": 152,"model":"base.place", "fields": {"province": "MC", "city": "Città Gassista 32", "name": "Indi: Gassista 32 casa", "lon": null, "lat": null,  "address": "indirizzo Gassista 32 casa",  "description": "descrizione Gassista 32 casa", "zipcode": "60XXX"} },
{"pk": 153,"model":"base.place", "fields": {"province": "MC", "city": "Città Gassista 33", "name": "Indi: Gassista 33 casa", "lon": null, "lat": null,  "address": "indirizzo Gassista 33 casa",  "description": "descrizione Gassista 33 casa", "zipcode": "60XXX"} },
{"pk": 154,"model":"base.place", "fields": {"province": "MC", "city": "Città Gassista 34", "name": "Indi: Gassista 34 casa", "lon": null, "lat": null,  "address": "indirizzo Gassista 34 casa",  "description": "descrizione Gassista 34 casa", "zipcode": "60XXX"} },
{"pk": 155,"model":"base.place", "fields": {"province": "MC", "city": "Città Gassista 35", "name": "Indi: Gassista 35 casa", "lon": null, "lat": null,  "address": "indirizzo Gassista 35 casa",  "description": "descrizione Gassista 35 casa", "zipcode": "60XXX"} },
{"pk": 156,"model":"base.place", "fields": {"province": "MC", "city": "Città Gassista 36", "name": "Indi: Gassista 36 casa", "lon": null, "lat": null,  "address": "indirizzo Gassista 36 casa",  "description": "descrizione Gassista 36 casa", "zipcode": "60XXX"} },
{"pk": 157,"model":"base.place", "fields": {"province": "MC", "city": "Città Gassista 37", "name": "Indi: Gassista 37 casa", "lon": null, "lat": null,  "address": "indirizzo Gassista 37 casa",  "description": "descrizione Gassista 37 casa", "zipcode": "60XXX"} },
{"pk": 158,"model":"base.place", "fields": {"province": "MC", "city": "Città Gassista 38", "name": "Indi: Gassista 38 casa", "lon": null, "lat": null,  "address": "indirizzo Gassista 38 casa",  "description": "descrizione Gassista 38 casa", "zipcode": "60XXX"} },
{"pk": 159,"model":"base.place", "fields": {"province": "MC", "city": "Città Gassista 39", "name": "Indi: Gassista 39 casa", "lon": null, "lat": null,  "address": "indirizzo Gassista 39 casa",  "description": "descrizione Gassista 39 casa", "zipcode": "60XXX"} },
{"pk": 160,"model":"base.place", "fields": {"province": "MC", "city": "Città Gassista 40", "name": "Indi: Gassista 40 casa", "lon": null, "lat": null,  "address": "indirizzo Gassista 40 casa",  "description": "descrizione Gassista 40 casa", "zipcode": "60XXX"} },
{"pk": 161,"model":"base.place", "fields": {"province": "MC", "city": "Città Gassista 41", "name": "Indi: Gassista 41 casa", "lon": null, "lat": null,  "address": "indirizzo Gassista 41 casa",  "description": "descrizione Gassista 41 casa", "zipcode": "60XXX"} },
{"pk": 162,"model":"base.place", "fields": {"province": "MC", "city": "Città Gassista 42", "name": "Indi: Gassista 42 casa", "lon": null, "lat": null,  "address": "indirizzo Gassista 42 casa",  "description": "descrizione Gassista 42 casa", "zipcode": "60XXX"} },
{"pk": 163,"model":"base.place", "fields": {"province": "MC", "city": "Città Gassista 43", "name": "Indi: Gassista 43 casa", "lon": null, "lat": null,  "address": "indirizzo Gassista 43 casa",  "description": "descrizione Gassista 43 casa", "zipcode": "60XXX"} },
{"pk": 164,"model":"base.place", "fields": {"province": "MC", "city": "Città Gassista 44", "name": "Indi: Gassista 44 casa", "lon": null, "lat": null,  "address": "indirizzo Gassista 44 casa",  "description": "descrizione Gassista 44 casa", "zipcode": "60XXX"} },
{"pk": 165,"model":"base.place", "fields": {"province": "MC", "city": "Città Gassista 45", "name": "Indi: Gassista 45 casa", "lon": null, "lat": null,  "address": "indirizzo Gassista 45 casa",  "description": "descrizione Gassista 45 casa", "zipcode": "60XXX"} },
{"pk": 166,"model":"base.place", "fields": {"province": "MC", "city": "Città Gassista 46", "name": "Indi: Gassista 46 casa", "lon": null, "lat": null,  "address": "indirizzo Gassista 46 casa",  "description": "descrizione Gassista 46 casa", "zipcode": "60XXX"} },
{"pk": 167,"model":"base.place", "fields": {"province": "MC", "city": "Città Gassista 47", "name": "Indi: Gassista 47 casa", "lon": null, "lat": null,  "address": "indirizzo Gassista 47 casa",  "description": "descrizione Gassista 47 casa", "zipcode": "60XXX"} },
{"pk": 168,"model":"base.place", "fields": {"province": "MC", "city": "Città Gassista 48", "name": "Indi: Gassista 48 casa", "lon": null, "lat": null,  "address": "indirizzo Gassista 48 casa",  "description": "descrizione Gassista 48 casa", "zipcode": "60XXX"} },
{"pk": 169,"model":"base.place", "fields": {"province": "MC", "city": "Città Gassista 49", "name": "Indi: Gassista 49 casa", "lon": null, "lat": null,  "address": "indirizzo Gassista 49 casa",  "description": "descrizione Gassista 49 casa", "zipcode": "60XXX"} },
{"pk": 170,"model":"base.place", "fields": {"province": "MC", "city": "Città Gassista 50", "name": "Indi: Gassista 50 casa", "lon": null, "lat": null,  "address": "indirizzo Gassista 50 casa",  "description": "descrizione Gassista 50 casa", "zipcode": "60XXX"} },
{"pk": 171,"model":"base.place", "fields": {"province": "MC", "city": "Città Gassista 51", "name": "Indi: Gassista 51 casa", "lon": null, "lat": null,  "address": "indirizzo Gassista 51 casa",  "description": "descrizione Gassista 51 casa", "zipcode": "60XXX"} },
{"pk": 172,"model":"base.place", "fields": {"province": "MC", "city": "Città Gassista 52", "name": "Indi: Gassista 52 casa", "lon": null, "lat": null,  "address": "indirizzo Gassista 52 casa",  "description": "descrizione Gassista 52 casa", "zipcode": "60XXX"} },
{"pk": 173,"model":"base.place", "fields": {"province": "MC", "city": "Città Gassista 53", "name": "Indi: Gassista 53 casa", "lon": null, "lat": null,  "address": "indirizzo Gassista 53 casa",  "description": "descrizione Gassista 53 casa", "zipcode": "60XXX"} },
{"pk": 174,"model":"base.place", "fields": {"province": "MC", "city": "Città Gassista 54", "name": "Indi: Gassista 54 casa", "lon": null, "lat": null,  "address": "indirizzo Gassista 54 casa",  "description": "descrizione Gassista 54 casa", "zipcode": "60XXX"} },
{"pk": 175,"model":"base.place", "fields": {"province": "MC", "city": "Città Gassista 55", "name": "Indi: Gassista 55 casa", "lon": null, "lat": null,  "address": "indirizzo Gassista 55 casa",  "description": "descrizione Gassista 55 casa", "zipcode": "60XXX"} },
{"pk": 176,"model":"base.place", "fields": {"province": "MC", "city": "Città Gassista 56", "name": "Indi: Gassista 56 casa", "lon": null, "lat": null,  "address": "indirizzo Gassista 56 casa",  "description": "descrizione Gassista 56 casa", "zipcode": "60XXX"} },
{"pk": 177,"model":"base.place", "fields": {"province": "MC", "city": "Città Gassista 57", "name": "Indi: Gassista 57 casa", "lon": null, "lat": null,  "address": "indirizzo Gassista 57 casa",  "description": "descrizione Gassista 57 casa", "zipcode": "60XXX"} },
{"pk": 178,"model":"base.place", "fields": {"province": "MC", "city": "Città Gassista 58", "name": "Indi: Gassista 58 casa", "lon": null, "lat": null,  "address": "indirizzo Gassista 58 casa",  "description": "descrizione Gassista 58 casa", "zipcode": "60XXX"} },
{"pk": 179,"model":"base.place", "fields": {"province": "MC", "city": "Città Gassista 59", "name": "Indi: Gassista 59 casa", "lon": null, "lat": null,  "address": "indirizzo Gassista 59 casa",  "description": "descrizione Gassista 59 casa", "zipcode": "60XXX"} },
{"pk": 180,"model":"base.place", "fields": {"province": "MC", "city": "Città Gassista 60", "name": "Indi: Gassista 60 casa", "lon": null, "lat": null,  "address": "indirizzo Gassista 60 casa",  "description": "descrizione Gassista 60 casa", "zipcode": "60XXX"} },
{"pk": 181,"model":"base.place", "fields": {"province": "MC", "city": "Città Gassista 61", "name": "Indi: Gassista 61 casa", "lon": null, "lat": null,  "address": "indirizzo Gassista 61 casa",  "description": "descrizione Gassista 61 casa", "zipcode": "60XXX"} },
{"pk": 182,"model":"base.place", "fields": {"province": "MC", "city": "Città Gassista 62", "name": "Indi: Gassista 62 casa", "lon": null, "lat": null,  "address": "indirizzo Gassista 62 casa",  "description": "descrizione Gassista 62 casa", "zipcode": "60XXX"} },
{"pk": 183,"model":"base.place", "fields": {"province": "MC", "city": "Città Gassista 63", "name": "Indi: Gassista 63 casa", "lon": null, "lat": null,  "address": "indirizzo Gassista 63 casa",  "description": "descrizione Gassista 63 casa", "zipcode": "60XXX"} },
{"pk": 184,"model":"base.place", "fields": {"province": "MC", "city": "Città Gassista 64", "name": "Indi: Gassista 64 casa", "lon": null, "lat": null,  "address": "indirizzo Gassista 64 casa",  "description": "descrizione Gassista 64 casa", "zipcode": "60XXX"} },
{"pk": 185,"model":"base.place", "fields": {"province": "MC", "city": "Città Gassista 65", "name": "Indi: Gassista 65 casa", "lon": null, "lat": null,  "address": "indirizzo Gassista 65 casa",  "description": "descrizione Gassista 65 casa", "zipcode": "60XXX"} },
{"pk": 186,"model":"base.place", "fields": {"province": "MC", "city": "Città Gassista 66", "name": "Indi: Gassista 66 casa", "lon": null, "lat": null,  "address": "indirizzo Gassista 66 casa",  "description": "descrizione Gassista 66 casa", "zipcode": "60XXX"} },
{"pk": 187,"model":"base.place", "fields": {"province": "MC", "city": "Città Gassista 67", "name": "Indi: Gassista 67 casa", "lon": null, "lat": null,  "address": "indirizzo Gassista 67 casa",  "description": "descrizione Gassista 67 casa", "zipcode": "60XXX"} },
{"pk": 188,"model":"base.place", "fields": {"province": "MC", "city": "Città Gassista 68", "name": "Indi: Gassista 68 casa", "lon": null, "lat": null,  "address": "indirizzo Gassista 68 casa",  "description": "descrizione Gassista 68 casa", "zipcode": "60XXX"} },
{"pk": 189,"model":"base.place", "fields": {"province": "MC", "city": "Città Gassista 69", "name": "Indi: Gassista 69 casa", "lon": null, "lat": null,  "address": "indirizzo Gassista 69 casa",  "description": "descrizione Gassista 69 casa", "zipcode": "60XXX"} },
{"pk": 190,"model":"base.place", "fields": {"province": "MC", "city": "Città Gassista 70", "name": "Indi: Gassista 70 casa", "lon": null, "lat": null,  "address": "indirizzo Gassista 70 casa",  "description": "descrizione Gassista 70 casa", "zipcode": "60XXX"} },
{"pk": 191,"model":"base.place", "fields": {"province": "MC", "city": "Città Gassista 71", "name": "Indi: Gassista 71 casa", "lon": null, "lat": null,  "address": "indirizzo Gassista 71 casa",  "description": "descrizione Gassista 71 casa", "zipcode": "60XXX"} },
{"pk": 192,"model":"base.place", "fields": {"province": "MC", "city": "Città Gassista 72", "name": "Indi: Gassista 72 casa", "lon": null, "lat": null,  "address": "indirizzo Gassista 72 casa",  "description": "descrizione Gassista 72 casa", "zipcode": "60XXX"} },
{"pk": 193,"model":"base.place", "fields": {"province": "MC", "city": "Città Gassista 73", "name": "Indi: Gassista 73 casa", "lon": null, "lat": null,  "address": "indirizzo Gassista 73 casa",  "description": "descrizione Gassista 73 casa", "zipcode": "60XXX"} },
{"pk": 194,"model":"base.place", "fields": {"province": "MC", "city": "Città Gassista 74", "name": "Indi: Gassista 74 casa", "lon": null, "lat": null,  "address": "indirizzo Gassista 74 casa",  "description": "descrizione Gassista 74 casa", "zipcode": "60XXX"} },
{"pk": 195,"model":"base.place", "fields": {"province": "MC", "city": "Città Gassista 75", "name": "Indi: Gassista 75 casa", "lon": null, "lat": null,  "address": "indirizzo Gassista 75 casa",  "description": "descrizione Gassista 75 casa", "zipcode": "60XXX"} },
{"pk": 196,"model":"base.place", "fields": {"province": "MC", "city": "Città Gassista 76", "name": "Indi: Gassista 76 casa", "lon": null, "lat": null,  "address": "indirizzo Gassista 76 casa",  "description": "descrizione Gassista 76 casa", "zipcode": "60XXX"} },
{"pk": 197,"model":"base.place", "fields": {"province": "MC", "city": "Città Gassista 77", "name": "Indi: Gassista 77 casa", "lon": null, "lat": null,  "address": "indirizzo Gassista 77 casa",  "description": "descrizione Gassista 77 casa", "zipcode": "60XXX"} },
{"pk": 198,"model":"base.place", "fields": {"province": "MC", "city": "Città Gassista 78", "name": "Indi: Gassista 78 casa", "lon": null, "lat": null,  "address": "indirizzo Gassista 78 casa",  "description": "descrizione Gassista 78 casa", "zipcode": "60XXX"} },
{"pk": 199,"model":"base.place", "fields": {"province": "MC", "city": "Città Gassista 79", "name": "Indi: Gassista 79 casa", "lon": null, "lat": null,  "address": "indirizzo Gassista 79 casa",  "description": "descrizione Gassista 79 casa", "zipcode": "60XXX"} },
{"pk": 200,"model":"base.place", "fields": {"province": "MC", "city": "Città Gassista 80", "name": "Indi: Gassista 80 casa", "lon": null, "lat": null,  "address": "indirizzo Gassista 80 casa",  "description": "descrizione Gassista 80 casa", "zipcode": "60XXX"} },
{"pk": 201,"model":"base.place", "fields": {"province": "MC", "city": "Città Gassista 81", "name": "Indi: Gassista 81 casa", "lon": null, "lat": null,  "address": "indirizzo Gassista 81 casa",  "description": "descrizione Gassista 81 casa", "zipcode": "60XXX"} },
{"pk": 202,"model":"base.place", "fields": {"province": "MC", "city": "Città Gassista 82", "name": "Indi: Gassista 82 casa", "lon": null, "lat": null,  "address": "indirizzo Gassista 82 casa",  "description": "descrizione Gassista 82 casa", "zipcode": "60XXX"} },
{"pk": 203,"model":"base.place", "fields": {"province": "MC", "city": "Città Gassista 83", "name": "Indi: Gassista 83 casa", "lon": null, "lat": null,  "address": "indirizzo Gassista 83 casa",  "description": "descrizione Gassista 83 casa", "zipcode": "60XXX"} },
{"pk": 204,"model":"base.place", "fields": {"province": "MC", "city": "Città Gassista 84", "name": "Indi: Gassista 84 casa", "lon": null, "lat": null,  "address": "indirizzo Gassista 84 casa",  "description": "descrizione Gassista 84 casa", "zipcode": "60XXX"} },
{"pk": 205,"model":"base.place", "fields": {"province": "MC", "city": "Città Gassista 85", "name": "Indi: Gassista 85 casa", "lon": null, "lat": null,  "address": "indirizzo Gassista 85 casa",  "description": "descrizione Gassista 85 casa", "zipcode": "60XXX"} },
{"pk": 206,"model":"base.place", "fields": {"province": "MC", "city": "Città Gassista 86", "name": "Indi: Gassista 86 casa", "lon": null, "lat": null,  "address": "indirizzo Gassista 86 casa",  "description": "descrizione Gassista 86 casa", "zipcode": "60XXX"} },
{"pk": 207,"model":"base.place", "fields": {"province": "MC", "city": "Città Gassista 87", "name": "Indi: Gassista 87 casa", "lon": null, "lat": null,  "address": "indirizzo Gassista 87 casa",  "description": "descrizione Gassista 87 casa", "zipcode": "60XXX"} },
{"pk": 208,"model":"base.place", "fields": {"province": "MC", "city": "Città Gassista 88", "name": "Indi: Gassista 88 casa", "lon": null, "lat": null,  "address": "indirizzo Gassista 88 casa",  "description": "descrizione Gassista 88 casa", "zipcode": "60XXX"} },
{"pk": 209,"model":"base.place", "fields": {"province": "MC", "city": "Città Gassista 89", "name": "Indi: Gassista 89 casa", "lon": null, "lat": null,  "address": "indirizzo Gassista 89 casa",  "description": "descrizione Gassista 89 casa", "zipcode": "60XXX"} },
{"pk": 210,"model":"base.place", "fields": {"province": "MC", "city": "Città Gassista 90", "name": "Indi: Gassista 90 casa", "lon": null, "lat": null,  "address": "indirizzo Gassista 90 casa",  "description": "descrizione Gassista 90 casa", "zipcode": "60XXX"} },
{"pk": 211,"model":"base.place", "fields": {"province": "MC", "city": "Città Gassista 91", "name": "Indi: Gassista 91 casa", "lon": null, "lat": null,  "address": "indirizzo Gassista 91 casa",  "description": "descrizione Gassista 91 casa", "zipcode": "60XXX"} },
{"pk": 212,"model":"base.place", "fields": {"province": "MC", "city": "Città Gassista 92", "name": "Indi: Gassista 92 casa", "lon": null, "lat": null,  "address": "indirizzo Gassista 92 casa",  "description": "descrizione Gassista 92 casa", "zipcode": "60XXX"} },
{"pk": 213,"model":"base.place", "fields": {"province": "MC", "city": "Città Gassista 93", "name": "Indi: Gassista 93 casa", "lon": null, "lat": null,  "address": "indirizzo Gassista 93 casa",  "description": "descrizione Gassista 93 casa", "zipcode": "60XXX"} },
{"pk": 214,"model":"base.place", "fields": {"province": "MC", "city": "Città Gassista 94", "name": "Indi: Gassista 94 casa", "lon": null, "lat": null,  "address": "indirizzo Gassista 94 casa",  "description": "descrizione Gassista 94 casa", "zipcode": "60XXX"} },
{"pk": 215,"model":"base.place", "fields": {"province": "MC", "city": "Città Gassista 95", "name": "Indi: Gassista 95 casa", "lon": null, "lat": null,  "address": "indirizzo Gassista 95 casa",  "description": "descrizione Gassista 95 casa", "zipcode": "60XXX"} },
{"pk": 216,"model":"base.place", "fields": {"province": "MC", "city": "Città Gassista 96", "name": "Indi: Gassista 96 casa", "lon": null, "lat": null,  "address": "indirizzo Gassista 96 casa",  "description": "descrizione Gassista 96 casa", "zipcode": "60XXX"} },
{"pk": 217,"model":"base.place", "fields": {"province": "MC", "city": "Città Gassista 97", "name": "Indi: Gassista 97 casa", "lon": null, "lat": null,  "address": "indirizzo Gassista 97 casa",  "description": "descrizione Gassista 97 casa", "zipcode": "60XXX"} },
{"pk": 218,"model":"base.place", "fields": {"province": "MC", "city": "Città Gassista 98", "name": "Indi: Gassista 98 casa", "lon": null, "lat": null,  "address": "indirizzo Gassista 98 casa",  "description": "descrizione Gassista 98 casa", "zipcode": "60XXX"} },
{"pk": 219,"model":"base.place", "fields": {"province": "MC", "city": "Città Gassista 99", "name": "Indi: Gassista 99 casa", "lon": null, "lat": null,  "address": "indirizzo Gassista 99 casa",  "description": "descrizione Gassista 99 casa", "zipcode": "60XXX"} },
{"pk": 220,"model":"base.place", "fields": {"province": "MC", "city": "Città Gassista 100", "name": "Indi: Gassista 100 casa", "lon": null, "lat": null,  "address": "indirizzo Gassista 100 casa",  "description": "descrizione Gassista 100 casa", "zipcode": "60XXX"} },
{"pk": 221,"model":"base.place", "fields": {"province": "MC", "city": "Città Gassista 101", "name": "Indi: Gassista 101 casa", "lon": null, "lat": null,  "address": "indirizzo Gassista 101 casa",  "description": "descrizione Gassista 101 casa", "zipcode": "60XXX"} },
{"pk": 222,"model":"base.place", "fields": {"province": "MC", "city": "Città Gassista 102", "name": "Indi: Gassista 102 casa", "lon": null, "lat": null,  "address": "indirizzo Gassista 102 casa",  "description": "descrizione Gassista 102 casa", "zipcode": "60XXX"} },
{"pk": 223,"model":"base.place", "fields": {"province": "MC", "city": "Città Gassista 103", "name": "Indi: Gassista 103 casa", "lon": null, "lat": null,  "address": "indirizzo Gassista 103 casa",  "description": "descrizione Gassista 103 casa", "zipcode": "60XXX"} },
{"pk": 224,"model":"base.place", "fields": {"province": "MC", "city": "Città Gassista 104", "name": "Indi: Gassista 104 casa", "lon": null, "lat": null,  "address": "indirizzo Gassista 104 casa",  "description": "descrizione Gassista 104 casa", "zipcode": "60XXX"} },
{"pk": 225,"model":"base.place", "fields": {"province": "MC", "city": "Città Gassista 105", "name": "Indi: Gassista 105 casa", "lon": null, "lat": null,  "address": "indirizzo Gassista 105 casa",  "description": "descrizione Gassista 105 casa", "zipcode": "60XXX"} },
{"pk": 226,"model":"base.place", "fields": {"province": "MC", "city": "Città Gassista 106", "name": "Indi: Gassista 106 casa", "lon": null, "lat": null,  "address": "indirizzo Gassista 106 casa",  "description": "descrizione Gassista 106 casa", "zipcode": "60XXX"} },
{"pk": 227,"model":"base.place", "fields": {"province": "MC", "city": "Città Gassista 107", "name": "Indi: Gassista 107 casa", "lon": null, "lat": null,  "address": "indirizzo Gassista 107 casa",  "description": "descrizione Gassista 107 casa", "zipcode": "60XXX"} },
{"pk": 228,"model":"base.place", "fields": {"province": "MC", "city": "Città Gassista 108", "name": "Indi: Gassista 108 casa", "lon": null, "lat": null,  "address": "indirizzo Gassista 108 casa",  "description": "descrizione Gassista 108 casa", "zipcode": "60XXX"} },
{"pk": 229,"model":"base.place", "fields": {"province": "MC", "city": "Città Gassista 109", "name": "Indi: Gassista 109 casa", "lon": null, "lat": null,  "address": "indirizzo Gassista 109 casa",  "description": "descrizione Gassista 109 casa", "zipcode": "60XXX"} },
{"pk": 230,"model":"base.place", "fields": {"province": "MC", "city": "Città Gassista 110", "name": "Indi: Gassista 110 casa", "lon": null, "lat": null,  "address": "indirizzo Gassista 110 casa",  "description": "descrizione Gassista 110 casa", "zipcode": "60XXX"} },
{"pk": 231,"model":"base.place", "fields": {"province": "MC", "city": "Città Gassista 111", "name": "Indi: Gassista 111 casa", "lon": null, "lat": null,  "address": "indirizzo Gassista 111 casa",  "description": "descrizione Gassista 111 casa", "zipcode": "60XXX"} },
{"pk": 232,"model":"base.place", "fields": {"province": "MC", "city": "Città Gassista 112", "name": "Indi: Gassista 112 casa", "lon": null, "lat": null,  "address": "indirizzo Gassista 112 casa",  "description": "descrizione Gassista 112 casa", "zipcode": "60XXX"} },
{"pk": 233,"model":"base.place", "fields": {"province": "MC", "city": "Città Gassista 113", "name": "Indi: Gassista 113 casa", "lon": null, "lat": null,  "address": "indirizzo Gassista 113 casa",  "description": "descrizione Gassista 113 casa", "zipcode": "60XXX"} },
{"pk": 234,"model":"base.place", "fields": {"province": "MC", "city": "Città Gassista 114", "name": "Indi: Gassista 114 casa", "lon": null, "lat": null,  "address": "indirizzo Gassista 114 casa",  "description": "descrizione Gassista 114 casa", "zipcode": "60XXX"} },
{"pk": 235,"model":"base.place", "fields": {"province": "MC", "city": "Città Gassista 115", "name": "Indi: Gassista 115 casa", "lon": null, "lat": null,  "address": "indirizzo Gassista 115 casa",  "description": "descrizione Gassista 115 casa", "zipcode": "60XXX"} },
{"pk": 236,"model":"base.place", "fields": {"province": "MC", "city": "Città Gassista 116", "name": "Indi: Gassista 116 casa", "lon": null, "lat": null,  "address": "indirizzo Gassista 116 casa",  "description": "descrizione Gassista 116 casa", "zipcode": "60XXX"} },
{"pk": 237,"model":"base.place", "fields": {"province": "MC", "city": "Città Gassista 117", "name": "Indi: Gassista 117 casa", "lon": null, "lat": null,  "address": "indirizzo Gassista 117 casa",  "description": "descrizione Gassista 117 casa", "zipcode": "60XXX"} },
{"pk": 238,"model":"base.place", "fields": {"province": "MC", "city": "Città Gassista 118", "name": "Indi: Gassista 118 casa", "lon": null, "lat": null,  "address": "indirizzo Gassista 118 casa",  "description": "descrizione Gassista 118 casa", "zipcode": "60XXX"} },
{"pk": 239,"model":"base.place", "fields": {"province": "MC", "city": "Città Gassista 119", "name": "Indi: Gassista 119 casa", "lon": null, "lat": null,  "address": "indirizzo Gassista 119 casa",  "description": "descrizione Gassista 119 casa", "zipcode": "60XXX"} },
{"pk": 240,"model":"base.place", "fields": {"province": "MC", "city": "Città Gassista 120", "name": "Indi: Gassista 120 casa", "lon": null, "lat": null,  "address": "indirizzo Gassista 120 casa",  "description": "descrizione Gassista 120 casa", "zipcode": "60XXX"} },
{"pk": 241,"model":"base.place", "fields": {"province": "MC", "city": "Città Gassista 121", "name": "Indi: Gassista 121 casa", "lon": null, "lat": null,  "address": "indirizzo Gassista 121 casa",  "description": "descrizione Gassista 121 casa", "zipcode": "60XXX"} },
{"pk": 242,"model":"base.place", "fields": {"province": "MC", "city": "Città Gassista 122", "name": "Indi: Gassista 122 casa", "lon": null, "lat": null,  "address": "indirizzo Gassista 122 casa",  "description": "descrizione Gassista 122 casa", "zipcode": "60XXX"} },
{"pk": 243,"model":"base.place", "fields": {"province": "MC", "city": "Città Gassista 123", "name": "Indi: Gassista 123 casa", "lon": null, "lat": null,  "address": "indirizzo Gassista 123 casa",  "description": "descrizione Gassista 123 casa", "zipcode": "60XXX"} },
{"pk": 244,"model":"base.place", "fields": {"province": "MC", "city": "Città Gassista 124", "name": "Indi: Gassista 124 casa", "lon": null, "lat": null,  "address": "indirizzo Gassista 124 casa",  "description": "descrizione Gassista 124 casa", "zipcode": "60XXX"} },
{"pk": 245,"model":"base.place", "fields": {"province": "MC", "city": "Città Gassista 125", "name": "Indi: Gassista 125 casa", "lon": null, "lat": null,  "address": "indirizzo Gassista 125 casa",  "description": "descrizione Gassista 125 casa", "zipcode": "60XXX"} },
{"pk": 246,"model":"base.place", "fields": {"province": "MC", "city": "Città Gassista 126", "name": "Indi: Gassista 126 casa", "lon": null, "lat": null,  "address": "indirizzo Gassista 126 casa",  "description": "descrizione Gassista 126 casa", "zipcode": "60XXX"} },
{"pk": 247,"model":"base.place", "fields": {"province": "MC", "city": "Città Gassista 127", "name": "Indi: Gassista 127 casa", "lon": null, "lat": null,  "address": "indirizzo Gassista 127 casa",  "description": "descrizione Gassista 127 casa", "zipcode": "60XXX"} },
{"pk": 248,"model":"base.place", "fields": {"province": "MC", "city": "Città Gassista 128", "name": "Indi: Gassista 128 casa", "lon": null, "lat": null,  "address": "indirizzo Gassista 128 casa",  "description": "descrizione Gassista 128 casa", "zipcode": "60XXX"} },
{"pk": 249,"model":"base.place", "fields": {"province": "MC", "city": "Città Gassista 129", "name": "Indi: Gassista 129 casa", "lon": null, "lat": null,  "address": "indirizzo Gassista 129 casa",  "description": "descrizione Gassista 129 casa", "zipcode": "60XXX"} },
{"pk": 250,"model":"base.place", "fields": {"province": "MC", "city": "Città Gassista 130", "name": "Indi: Gassista 130 casa", "lon": null, "lat": null,  "address": "indirizzo Gassista 130 casa",  "description": "descrizione Gassista 130 casa", "zipcode": "60XXX"} },
{"pk": 251,"model":"base.place", "fields": {"province": "MC", "city": "Città Gassista 131", "name": "Indi: Gassista 131 casa", "lon": null, "lat": null,  "address": "indirizzo Gassista 131 casa",  "description": "descrizione Gassista 131 casa", "zipcode": "60XXX"} },
{"pk": 252,"model":"base.place", "fields": {"province": "MC", "city": "Città Gassista 132", "name": "Indi: Gassista 132 casa", "lon": null, "lat": null,  "address": "indirizzo Gassista 132 casa",  "description": "descrizione Gassista 132 casa", "zipcode": "60XXX"} },
{"pk": 253,"model":"base.place", "fields": {"province": "MC", "city": "Città Gassista 133", "name": "Indi: Gassista 133 casa", "lon": null, "lat": null,  "address": "indirizzo Gassista 133 casa",  "description": "descrizione Gassista 133 casa", "zipcode": "60XXX"} },
{"pk": 254,"model":"base.place", "fields": {"province": "MC", "city": "Città Gassista 134", "name": "Indi: Gassista 134 casa", "lon": null, "lat": null,  "address": "indirizzo Gassista 134 casa",  "description": "descrizione Gassista 134 casa", "zipcode": "60XXX"} },
{"pk": 255,"model":"base.place", "fields": {"province": "MC", "city": "Città Gassista 135", "name": "Indi: Gassista 135 casa", "lon": null, "lat": null,  "address": "indirizzo Gassista 135 casa",  "description": "descrizione Gassista 135 casa", "zipcode": "60XXX"} },
{"pk": 256,"model":"base.place", "fields": {"province": "MC", "city": "Città Gassista 136", "name": "Indi: Gassista 136 casa", "lon": null, "lat": null,  "address": "indirizzo Gassista 136 casa",  "description": "descrizione Gassista 136 casa", "zipcode": "60XXX"} },
{"pk": 257,"model":"base.place", "fields": {"province": "MC", "city": "Città Gassista 137", "name": "Indi: Gassista 137 casa", "lon": null, "lat": null,  "address": "indirizzo Gassista 137 casa",  "description": "descrizione Gassista 137 casa", "zipcode": "60XXX"} },
{"pk": 258,"model":"base.place", "fields": {"province": "MC", "city": "Città Gassista 138", "name": "Indi: Gassista 138 casa", "lon": null, "lat": null,  "address": "indirizzo Gassista 138 casa",  "description": "descrizione Gassista 138 casa", "zipcode": "60XXX"} },
{"pk": 259,"model":"base.place", "fields": {"province": "MC", "city": "Città Gassista 139", "name": "Indi: Gassista 139 casa", "lon": null, "lat": null,  "address": "indirizzo Gassista 139 casa",  "description": "descrizione Gassista 139 casa", "zipcode": "60XXX"} },
{"pk": 260,"model":"base.place", "fields": {"province": "MC", "city": "Città Gassista 140", "name": "Indi: Gassista 140 casa", "lon": null, "lat": null,  "address": "indirizzo Gassista 140 casa",  "description": "descrizione Gassista 140 casa", "zipcode": "60XXX"} },
{"pk": 261,"model":"base.place", "fields": {"province": "MC", "city": "Città Gassista 141", "name": "Indi: Gassista 141 casa", "lon": null, "lat": null,  "address": "indirizzo Gassista 141 casa",  "description": "descrizione Gassista 141 casa", "zipcode": "60XXX"} },
{"pk": 262,"model":"base.place", "fields": {"province": "MC", "city": "Città Gassista 142", "name": "Indi: Gassista 142 casa", "lon": null, "lat": null,  "address": "indirizzo Gassista 142 casa",  "description": "descrizione Gassista 142 casa", "zipcode": "60XXX"} },
{"pk": 263,"model":"base.place", "fields": {"province": "MC", "city": "Città Gassista 143", "name": "Indi: Gassista 143 casa", "lon": null, "lat": null,  "address": "indirizzo Gassista 143 casa",  "description": "descrizione Gassista 143 casa", "zipcode": "60XXX"} },
{"pk": 264,"model":"base.place", "fields": {"province": "MC", "city": "Città Gassista 144", "name": "Indi: Gassista 144 casa", "lon": null, "lat": null,  "address": "indirizzo Gassista 144 casa",  "description": "descrizione Gassista 144 casa", "zipcode": "60XXX"} },
{"pk": 265,"model":"base.place", "fields": {"province": "MC", "city": "Città Gassista 145", "name": "Indi: Gassista 145 casa", "lon": null, "lat": null,  "address": "indirizzo Gassista 145 casa",  "description": "descrizione Gassista 145 casa", "zipcode": "60XXX"} },
{"pk": 266,"model":"base.place", "fields": {"province": "MC", "city": "Città Gassista 146", "name": "Indi: Gassista 146 casa", "lon": null, "lat": null,  "address": "indirizzo Gassista 146 casa",  "description": "descrizione Gassista 146 casa", "zipcode": "60XXX"} },
{"pk": 267,"model":"base.place", "fields": {"province": "MC", "city": "Città Gassista 147", "name": "Indi: Gassista 147 casa", "lon": null, "lat": null,  "address": "indirizzo Gassista 147 casa",  "description": "descrizione Gassista 147 casa", "zipcode": "60XXX"} },
{"pk": 268,"model":"base.place", "fields": {"province": "MC", "city": "Città Gassista 148", "name": "Indi: Gassista 148 casa", "lon": null, "lat": null,  "address": "indirizzo Gassista 148 casa",  "description": "descrizione Gassista 148 casa", "zipcode": "60XXX"} },
{"pk": 269,"model":"base.place", "fields": {"province": "MC", "city": "Città Gassista 149", "name": "Indi: Gassista 149 casa", "lon": null, "lat": null,  "address": "indirizzo Gassista 149 casa",  "description": "descrizione Gassista 149 casa", "zipcode": "60XXX"} },
{"pk": 270,"model":"base.place", "fields": {"province": "MC", "city": "Città Gassista 150", "name": "Indi: Gassista 150 casa", "lon": null, "lat": null,  "address": "indirizzo Gassista 150 casa",  "description": "descrizione Gassista 150 casa", "zipcode": "60XXX"} },
{"pk": 271,"model":"base.place", "fields": {"province": "MC", "city": "Città Gassista 151", "name": "Indi: Gassista 151 casa", "lon": null, "lat": null,  "address": "indirizzo Gassista 151 casa",  "description": "descrizione Gassista 151 casa", "zipcode": "60XXX"} },
{"pk": 272,"model":"base.place", "fields": {"province": "MC", "city": "Città Gassista 152", "name": "Indi: Gassista 152 casa", "lon": null, "lat": null,  "address": "indirizzo Gassista 152 casa",  "description": "descrizione Gassista 152 casa", "zipcode": "60XXX"} },
{"pk": 273,"model":"base.place", "fields": {"province": "MC", "city": "Città Gassista 153", "name": "Indi: Gassista 153 casa", "lon": null, "lat": null,  "address": "indirizzo Gassista 153 casa",  "description": "descrizione Gassista 153 casa", "zipcode": "60XXX"} },
{"pk": 274,"model":"base.place", "fields": {"province": "MC", "city": "Città Gassista 154", "name": "Indi: Gassista 154 casa", "lon": null, "lat": null,  "address": "indirizzo Gassista 154 casa",  "description": "descrizione Gassista 154 casa", "zipcode": "60XXX"} },
{"pk": 275,"model":"base.place", "fields": {"province": "MC", "city": "Città Gassista 155", "name": "Indi: Gassista 155 casa", "lon": null, "lat": null,  "address": "indirizzo Gassista 155 casa",  "description": "descrizione Gassista 155 casa", "zipcode": "60XXX"} },
{"pk": 276,"model":"base.place", "fields": {"province": "MC", "city": "Città Gassista 156", "name": "Indi: Gassista 156 casa", "lon": null, "lat": null,  "address": "indirizzo Gassista 156 casa",  "description": "descrizione Gassista 156 casa", "zipcode": "60XXX"} },
{"pk": 277,"model":"base.place", "fields": {"province": "MC", "city": "Città Gassista 157", "name": "Indi: Gassista 157 casa", "lon": null, "lat": null,  "address": "indirizzo Gassista 157 casa",  "description": "descrizione Gassista 157 casa", "zipcode": "60XXX"} },
{"pk": 278,"model":"base.place", "fields": {"province": "MC", "city": "Città Gassista 158", "name": "Indi: Gassista 158 casa", "lon": null, "lat": null,  "address": "indirizzo Gassista 158 casa",  "description": "descrizione Gassista 158 casa", "zipcode": "60XXX"} },
{"pk": 279,"model":"base.place", "fields": {"province": "MC", "city": "Città Gassista 159", "name": "Indi: Gassista 159 casa", "lon": null, "lat": null,  "address": "indirizzo Gassista 159 casa",  "description": "descrizione Gassista 159 casa", "zipcode": "60XXX"} },
{"pk": 280,"model":"base.place", "fields": {"province": "MC", "city": "Città Gassista 160", "name": "Indi: Gassista 160 casa", "lon": null, "lat": null,  "address": "indirizzo Gassista 160 casa",  "description": "descrizione Gassista 160 casa", "zipcode": "60XXX"} },
{"pk": 281,"model":"base.place", "fields": {"province": "MC", "city": "Città Gassista 161", "name": "Indi: Gassista 161 casa", "lon": null, "lat": null,  "address": "indirizzo Gassista 161 casa",  "description": "descrizione Gassista 161 casa", "zipcode": "60XXX"} },
{"pk": 282,"model":"base.place", "fields": {"province": "MC", "city": "Città Gassista 162", "name": "Indi: Gassista 162 casa", "lon": null, "lat": null,  "address": "indirizzo Gassista 162 casa",  "description": "descrizione Gassista 162 casa", "zipcode": "60XXX"} },
{"pk": 283,"model":"base.place", "fields": {"province": "MC", "city": "Città Gassista 163", "name": "Indi: Gassista 163 casa", "lon": null, "lat": null,  "address": "indirizzo Gassista 163 casa",  "description": "descrizione Gassista 163 casa", "zipcode": "60XXX"} },
{"pk": 284,"model":"base.place", "fields": {"province": "MC", "city": "Città Gassista 164", "name": "Indi: Gassista 164 casa", "lon": null, "lat": null,  "address": "indirizzo Gassista 164 casa",  "description": "descrizione Gassista 164 casa", "zipcode": "60XXX"} },
{"pk": 285,"model":"base.place", "fields": {"province": "MC", "city": "Città Gassista 165", "name": "Indi: Gassista 165 casa", "lon": null, "lat": null,  "address": "indirizzo Gassista 165 casa",  "description": "descrizione Gassista 165 casa", "zipcode": "60XXX"} },
{"pk": 286,"model":"base.place", "fields": {"province": "MC", "city": "Città Gassista 166", "name": "Indi: Gassista 166 casa", "lon": null, "lat": null,  "address": "indirizzo Gassista 166 casa",  "description": "descrizione Gassista 166 casa", "zipcode": "60XXX"} },
{"pk": 287,"model":"base.place", "fields": {"province": "MC", "city": "Città Gassista 167", "name": "Indi: Gassista 167 casa", "lon": null, "lat": null,  "address": "indirizzo Gassista 167 casa",  "description": "descrizione Gassista 167 casa", "zipcode": "60XXX"} },
{"pk": 288,"model":"base.place", "fields": {"province": "MC", "city": "Città Gassista 168", "name": "Indi: Gassista 168 casa", "lon": null, "lat": null,  "address": "indirizzo Gassista 168 casa",  "description": "descrizione Gassista 168 casa", "zipcode": "60XXX"} },
{"pk": 289,"model":"base.place", "fields": {"province": "MC", "city": "Città Gassista 169", "name": "Indi: Gassista 169 casa", "lon": null, "lat": null,  "address": "indirizzo Gassista 169 casa",  "description": "descrizione Gassista 169 casa", "zipcode": "60XXX"} },
{"pk": 290,"model":"base.place", "fields": {"province": "MC", "city": "Città Gassista 170", "name": "Indi: Gassista 170 casa", "lon": null, "lat": null,  "address": "indirizzo Gassista 170 casa",  "description": "descrizione Gassista 170 casa", "zipcode": "60XXX"} },
{"pk": 291,"model":"base.place", "fields": {"province": "MC", "city": "Città Gassista 171", "name": "Indi: Gassista 171 casa", "lon": null, "lat": null,  "address": "indirizzo Gassista 171 casa",  "description": "descrizione Gassista 171 casa", "zipcode": "60XXX"} },
{"pk": 292,"model":"base.place", "fields": {"province": "MC", "city": "Città Gassista 172", "name": "Indi: Gassista 172 casa", "lon": null, "lat": null,  "address": "indirizzo Gassista 172 casa",  "description": "descrizione Gassista 172 casa", "zipcode": "60XXX"} },
{"pk": 293,"model":"base.place", "fields": {"province": "MC", "city": "Città Gassista 173", "name": "Indi: Gassista 173 casa", "lon": null, "lat": null,  "address": "indirizzo Gassista 173 casa",  "description": "descrizione Gassista 173 casa", "zipcode": "60XXX"} },
{"pk": 294,"model":"base.place", "fields": {"province": "MC", "city": "Città Gassista 174", "name": "Indi: Gassista 174 casa", "lon": null, "lat": null,  "address": "indirizzo Gassista 174 casa",  "description": "descrizione Gassista 174 casa", "zipcode": "60XXX"} },
{"pk": 295,"model":"base.place", "fields": {"province": "MC", "city": "Città Gassista 175", "name": "Indi: Gassista 175 casa", "lon": null, "lat": null,  "address": "indirizzo Gassista 175 casa",  "description": "descrizione Gassista 175 casa", "zipcode": "60XXX"} },
{"pk": 296,"model":"base.place", "fields": {"province": "MC", "city": "Città Gassista 176", "name": "Indi: Gassista 176 casa", "lon": null, "lat": null,  "address": "indirizzo Gassista 176 casa",  "description": "descrizione Gassista 176 casa", "zipcode": "60XXX"} },
{"pk": 297,"model":"base.place", "fields": {"province": "MC", "city": "Città Gassista 177", "name": "Indi: Gassista 177 casa", "lon": null, "lat": null,  "address": "indirizzo Gassista 177 casa",  "description": "descrizione Gassista 177 casa", "zipcode": "60XXX"} },
{"pk": 298,"model":"base.place", "fields": {"province": "MC", "city": "Città Gassista 178", "name": "Indi: Gassista 178 casa", "lon": null, "lat": null,  "address": "indirizzo Gassista 178 casa",  "description": "descrizione Gassista 178 casa", "zipcode": "60XXX"} },
{"pk": 299,"model":"base.place", "fields": {"province": "MC", "city": "Città Gassista 179", "name": "Indi: Gassista 179 casa", "lon": null, "lat": null,  "address": "indirizzo Gassista 179 casa",  "description": "descrizione Gassista 179 casa", "zipcode": "60XXX"} },
{"pk": 300,"model":"base.place", "fields": {"province": "MC", "city": "Città Gassista 180", "name": "Indi: Gassista 180 casa", "lon": null, "lat": null,  "address": "indirizzo Gassista 180 casa",  "description": "descrizione Gassista 180 casa", "zipcode": "60XXX"} },
{"pk": 301,"model":"base.place", "fields": {"province": "MC", "city": "Città Prod lav. 1", "name": "Indi: Produttore 1 sede", "lon": null, "lat": null,  "address": "indirizzo Produttore 1 di produzione",  "description": "descrizione Produttore 1 di produzione", "zipcode": "70XXX"} },
{"pk": 302,"model":"base.place", "fields": {"province": "MC", "city": "Città Prod lav. 2", "name": "Indi: Produttore 2 sede", "lon": null, "lat": null,  "address": "indirizzo Produttore 2 di produzione",  "description": "descrizione Produttore 2 di produzione", "zipcode": "70XXX"} },
{"pk": 303,"model":"base.place", "fields": {"province": "MC", "city": "Città Prod lav. 3", "name": "Indi: Produttore 3 sede", "lon": null, "lat": null,  "address": "indirizzo Produttore 3 di produzione",  "description": "descrizione Produttore 3 di produzione", "zipcode": "70XXX"} },
{"pk": 304,"model":"base.place", "fields": {"province": "MC", "city": "Città Prod lav. 4", "name": "Indi: Produttore 4 sede", "lon": null, "lat": null,  "address": "indirizzo Produttore 4 di produzione",  "description": "descrizione Produttore 4 di produzione", "zipcode": "70XXX"} },
{"pk": 305,"model":"base.place", "fields": {"province": "MC", "city": "Città Prod lav. 5", "name": "Indi: Produttore 5 sede", "lon": null, "lat": null,  "address": "indirizzo Produttore 5 di produzione",  "description": "descrizione Produttore 5 di produzione", "zipcode": "70XXX"} },
{"pk": 306,"model":"base.place", "fields": {"province": "MC", "city": "Città Prod lav. 6", "name": "Indi: Produttore 6 sede", "lon": null, "lat": null,  "address": "indirizzo Produttore 6 di produzione",  "description": "descrizione Produttore 6 di produzione", "zipcode": "70XXX"} },
{"pk": 307,"model":"base.place", "fields": {"province": "MC", "city": "Città Prod lav. 7", "name": "Indi: Produttore 7 sede", "lon": null, "lat": null,  "address": "indirizzo Produttore 7 di produzione",  "description": "descrizione Produttore 7 di produzione", "zipcode": "70XXX"} },
{"pk": 308,"model":"base.place", "fields": {"province": "MC", "city": "Città Prod lav. 8", "name": "Indi: Produttore 8 sede", "lon": null, "lat": null,  "address": "indirizzo Produttore 8 di produzione",  "description": "descrizione Produttore 8 di produzione", "zipcode": "70XXX"} },
{"pk": 309,"model":"base.place", "fields": {"province": "MC", "city": "Città Prod lav. 9", "name": "Indi: Produttore 9 sede", "lon": null, "lat": null,  "address": "indirizzo Produttore 9 di produzione",  "description": "descrizione Produttore 9 di produzione", "zipcode": "70XXX"} },
{"pk": 310,"model":"base.place", "fields": {"province": "MC", "city": "Città Prod lav. 10", "name": "Indi: Produttore 10 sede", "lon": null, "lat": null,  "address": "indirizzo Produttore 10 di produzione",  "description": "descrizione Produttore 10 di produzione", "zipcode": "70XXX"} },
{"pk": 311,"model":"base.place", "fields": {"province": "MC", "city": "Città Prod lav. 11", "name": "Indi: Produttore 11 sede", "lon": null, "lat": null,  "address": "indirizzo Produttore 11 di produzione",  "description": "descrizione Produttore 11 di produzione", "zipcode": "70XXX"} },
{"pk": 312,"model":"base.place", "fields": {"province": "MC", "city": "Città Prod lav. 12", "name": "Indi: Produttore 12 sede", "lon": null, "lat": null,  "address": "indirizzo Produttore 12 di produzione",  "description": "descrizione Produttore 12 di produzione", "zipcode": "70XXX"} },
{"pk": 313,"model":"base.place", "fields": {"province": "MC", "city": "Città Prod lav. 13", "name": "Indi: Produttore 13 sede", "lon": null, "lat": null,  "address": "indirizzo Produttore 13 di produzione",  "description": "descrizione Produttore 13 di produzione", "zipcode": "70XXX"} },
{"pk": 314,"model":"base.place", "fields": {"province": "MC", "city": "Città Prod lav. 14", "name": "Indi: Produttore 14 sede", "lon": null, "lat": null,  "address": "indirizzo Produttore 14 di produzione",  "description": "descrizione Produttore 14 di produzione", "zipcode": "70XXX"} },
{"pk": 315,"model":"base.place", "fields": {"province": "MC", "city": "Città Prod lav. 15", "name": "Indi: Produttore 15 sede", "lon": null, "lat": null,  "address": "indirizzo Produttore 15 di produzione",  "description": "descrizione Produttore 15 di produzione", "zipcode": "70XXX"} },
{"pk": 316,"model":"base.place", "fields": {"province": "MC", "city": "Città Prod lav. 16", "name": "Indi: Produttore 16 sede", "lon": null, "lat": null,  "address": "indirizzo Produttore 16 di produzione",  "description": "descrizione Produttore 16 di produzione", "zipcode": "70XXX"} },
{"pk": 317,"model":"base.place", "fields": {"province": "MC", "city": "Città Prod lav. 17", "name": "Indi: Produttore 17 sede", "lon": null, "lat": null,  "address": "indirizzo Produttore 17 di produzione",  "description": "descrizione Produttore 17 di produzione", "zipcode": "70XXX"} },
{"pk": 318,"model":"base.place", "fields": {"province": "MC", "city": "Città Prod lav. 18", "name": "Indi: Produttore 18 sede", "lon": null, "lat": null,  "address": "indirizzo Produttore 18 di produzione",  "description": "descrizione Produttore 18 di produzione", "zipcode": "70XXX"} },
{"pk": 319,"model":"base.place", "fields": {"province": "MC", "city": "Città Prod lav. 19", "name": "Indi: Produttore 19 sede", "lon": null, "lat": null,  "address": "indirizzo Produttore 19 di produzione",  "description": "descrizione Produttore 19 di produzione", "zipcode": "70XXX"} },
{"pk": 320,"model":"base.place", "fields": {"province": "MC", "city": "Città Prod lav. 20", "name": "Indi: Produttore 20 sede", "lon": null, "lat": null,  "address": "indirizzo Produttore 20 di produzione",  "description": "descrizione Produttore 20 di produzione", "zipcode": "70XXX"} },
{"pk": 321,"model":"base.place", "fields": {"province": "MC", "city": "Città Prod lav. 21", "name": "Indi: Produttore 21 sede", "lon": null, "lat": null,  "address": "indirizzo Produttore 21 di produzione",  "description": "descrizione Produttore 21 di produzione", "zipcode": "70XXX"} },
{"pk": 322,"model":"base.place", "fields": {"province": "MC", "city": "Città Prod lav. 22", "name": "Indi: Produttore 22 sede", "lon": null, "lat": null,  "address": "indirizzo Produttore 22 di produzione",  "description": "descrizione Produttore 22 di produzione", "zipcode": "70XXX"} },
{"pk": 323,"model":"base.place", "fields": {"province": "MC", "city": "Città Prod lav. 23", "name": "Indi: Produttore 23 sede", "lon": null, "lat": null,  "address": "indirizzo Produttore 23 di produzione",  "description": "descrizione Produttore 23 di produzione", "zipcode": "70XXX"} },
{"pk": 324,"model":"base.place", "fields": {"province": "MC", "city": "Città Prod lav. 24", "name": "Indi: Produttore 24 sede", "lon": null, "lat": null,  "address": "indirizzo Produttore 24 di produzione",  "description": "descrizione Produttore 24 di produzione", "zipcode": "70XXX"} },
{"pk": 325,"model":"base.place", "fields": {"province": "MC", "city": "Città Prod lav. 25", "name": "Indi: Produttore 25 sede", "lon": null, "lat": null,  "address": "indirizzo Produttore 25 di produzione",  "description": "descrizione Produttore 25 di produzione", "zipcode": "70XXX"} },
{"pk": 326,"model":"base.place", "fields": {"province": "MC", "city": "Città Prod lav. 26", "name": "Indi: Produttore 26 sede", "lon": null, "lat": null,  "address": "indirizzo Produttore 26 di produzione",  "description": "descrizione Produttore 26 di produzione", "zipcode": "70XXX"} },
{"pk": 327,"model":"base.place", "fields": {"province": "MC", "city": "Città Prod lav. 27", "name": "Indi: Produttore 27 sede", "lon": null, "lat": null,  "address": "indirizzo Produttore 27 di produzione",  "description": "descrizione Produttore 27 di produzione", "zipcode": "70XXX"} },
{"pk": 328,"model":"base.place", "fields": {"province": "MC", "city": "Città Prod lav. 28", "name": "Indi: Produttore 28 sede", "lon": null, "lat": null,  "address": "indirizzo Produttore 28 di produzione",  "description": "descrizione Produttore 28 di produzione", "zipcode": "70XXX"} },
{"pk": 329,"model":"base.place", "fields": {"province": "MC", "city": "Città Prod lav. 29", "name": "Indi: Produttore 29 sede", "lon": null, "lat": null,  "address": "indirizzo Produttore 29 di produzione",  "description": "descrizione Produttore 29 di produzione", "zipcode": "70XXX"} },
{"pk": 330,"model":"base.place", "fields": {"province": "MC", "city": "Città Prod lav. 30", "name": "Indi: Produttore 30 sede", "lon": null, "lat": null,  "address": "indirizzo Produttore 30 di produzione",  "description": "descrizione Produttore 30 di produzione", "zipcode": "70XXX"} },
{"pk": 331,"model":"base.place", "fields": {"province": "MC", "city": "Città Prod lav. 31", "name": "Indi: Produttore 31 sede", "lon": null, "lat": null,  "address": "indirizzo Produttore 31 di produzione",  "description": "descrizione Produttore 31 di produzione", "zipcode": "70XXX"} },
{"pk": 332,"model":"base.place", "fields": {"province": "MC", "city": "Città Prod lav. 32", "name": "Indi: Produttore 32 sede", "lon": null, "lat": null,  "address": "indirizzo Produttore 32 di produzione",  "description": "descrizione Produttore 32 di produzione", "zipcode": "70XXX"} },
{"pk": 333,"model":"base.place", "fields": {"province": "MC", "city": "Città Prod lav. 33", "name": "Indi: Produttore 33 sede", "lon": null, "lat": null,  "address": "indirizzo Produttore 33 di produzione",  "description": "descrizione Produttore 33 di produzione", "zipcode": "70XXX"} },
{"pk": 334,"model":"base.place", "fields": {"province": "MC", "city": "Città Prod lav. 34", "name": "Indi: Produttore 34 sede", "lon": null, "lat": null,  "address": "indirizzo Produttore 34 di produzione",  "description": "descrizione Produttore 34 di produzione", "zipcode": "70XXX"} },
{"pk": 335,"model":"base.place", "fields": {"province": "MC", "city": "Città Prod lav. 35", "name": "Indi: Produttore 35 sede", "lon": null, "lat": null,  "address": "indirizzo Produttore 35 di produzione",  "description": "descrizione Produttore 35 di produzione", "zipcode": "70XXX"} },
{"pk": 336,"model":"base.place", "fields": {"province": "MC", "city": "Città Prod lav. 36", "name": "Indi: Produttore 36 sede", "lon": null, "lat": null,  "address": "indirizzo Produttore 36 di produzione",  "description": "descrizione Produttore 36 di produzione", "zipcode": "70XXX"} },
{"pk": 337,"model":"base.place", "fields": {"province": "MC", "city": "Città Prod lav. 37", "name": "Indi: Produttore 37 sede", "lon": null, "lat": null,  "address": "indirizzo Produttore 37 di produzione",  "description": "descrizione Produttore 37 di produzione", "zipcode": "70XXX"} },
{"pk": 338,"model":"base.place", "fields": {"province": "MC", "city": "Città Prod lav. 38", "name": "Indi: Produttore 38 sede", "lon": null, "lat": null,  "address": "indirizzo Produttore 38 di produzione",  "description": "descrizione Produttore 38 di produzione", "zipcode": "70XXX"} },
{"pk": 339,"model":"base.place", "fields": {"province": "MC", "city": "Città Prod lav. 39", "name": "Indi: Produttore 39 sede", "lon": null, "lat": null,  "address": "indirizzo Produttore 39 di produzione",  "description": "descrizione Produttore 39 di produzione", "zipcode": "70XXX"} },
{"pk": 340,"model":"base.place", "fields": {"province": "MC", "city": "Città Prod lav. 40", "name": "Indi: Produttore 40 sede", "lon": null, "lat": null,  "address": "indirizzo Produttore 40 di produzione",  "description": "descrizione Produttore 40 di produzione", "zipcode": "70XXX"} },
{"pk": 341,"model":"base.place", "fields": {"province": "MC", "city": "Città Prod lav. 41", "name": "Indi: Produttore 41 sede", "lon": null, "lat": null,  "address": "indirizzo Produttore 41 di produzione",  "description": "descrizione Produttore 41 di produzione", "zipcode": "70XXX"} },
{"pk": 342,"model":"base.place", "fields": {"province": "MC", "city": "Città Prod lav. 42", "name": "Indi: Produttore 42 sede", "lon": null, "lat": null,  "address": "indirizzo Produttore 42 di produzione",  "description": "descrizione Produttore 42 di produzione", "zipcode": "70XXX"} },
{"pk": 343,"model":"base.place", "fields": {"province": "MC", "city": "Città Prod lav. 43", "name": "Indi: Produttore 43 sede", "lon": null, "lat": null,  "address": "indirizzo Produttore 43 di produzione",  "description": "descrizione Produttore 43 di produzione", "zipcode": "70XXX"} },
{"pk": 344,"model":"base.place", "fields": {"province": "MC", "city": "Città Prod lav. 44", "name": "Indi: Produttore 44 sede", "lon": null, "lat": null,  "address": "indirizzo Produttore 44 di produzione",  "description": "descrizione Produttore 44 di produzione", "zipcode": "70XXX"} },
{"pk": 345,"model":"base.place", "fields": {"province": "MC", "city": "Città Prod lav. 45", "name": "Indi: Produttore 45 sede", "lon": null, "lat": null,  "address": "indirizzo Produttore 45 di produzione",  "description": "descrizione Produttore 45 di produzione", "zipcode": "70XXX"} },
{"pk": 346,"model":"base.place", "fields": {"province": "MC", "city": "Città Prod lav. 46", "name": "Indi: Produttore 46 sede", "lon": null, "lat": null,  "address": "indirizzo Produttore 46 di produzione",  "description": "descrizione Produttore 46 di produzione", "zipcode": "70XXX"} },
{"pk": 347,"model":"base.place", "fields": {"province": "MC", "city": "Città Prod lav. 47", "name": "Indi: Produttore 47 sede", "lon": null, "lat": null,  "address": "indirizzo Produttore 47 di produzione",  "description": "descrizione Produttore 47 di produzione", "zipcode": "70XXX"} },
{"pk": 348,"model":"base.place", "fields": {"province": "MC", "city": "Città Prod lav. 48", "name": "Indi: Produttore 48 sede", "lon": null, "lat": null,  "address": "indirizzo Produttore 48 di produzione",  "description": "descrizione Produttore 48 di produzione", "zipcode": "70XXX"} },
{"pk": 349,"model":"base.place", "fields": {"province": "MC", "city": "Città Prod lav. 49", "name": "Indi: Produttore 49 sede", "lon": null, "lat": null,  "address": "indirizzo Produttore 49 di produzione",  "description": "descrizione Produttore 49 di produzione", "zipcode": "70XXX"} },
{"pk": 350,"model":"base.place", "fields": {"province": "MC", "city": "Città Prod lav. 50", "name": "Indi: Produttore 50 sede", "lon": null, "lat": null,  "address": "indirizzo Produttore 50 di produzione",  "description": "descrizione Produttore 50 di produzione", "zipcode": "70XXX"} },


{"pk": 1,"model":"base.person", "fields": {"display_name": "personSupplier 1 producer","uuid": "12345678901","contacts": [],"user":2,"surname": "prod","name": "prod1","address": 21} },
{"pk": 2,"model":"base.person", "fields": {"display_name": "personSupplier 2 producer","uuid": "12345678902","contacts": [],"user":3,"surname": "prod","name": "prod2","address": 22} },
{"pk": 3,"model":"base.person", "fields": {"display_name": "personSupplier 3 producer","uuid": "12345678903","contacts": [],"user":4,"surname": "prod","name": "prod3","address": 23} },
{"pk": 4,"model":"base.person", "fields": {"display_name": "personSupplier 4 producer","uuid": "12345678904","contacts": [],"user":5,"surname": "prod","name": "prod4","address": 24} },
{"pk": 5,"model":"base.person", "fields": {"display_name": "personSupplier 5 producer","uuid": "12345678905","contacts": [],"user":6,"surname": "prod","name": "prod5","address": 25} },
{"pk": 6,"model":"base.person", "fields": {"display_name": "personSupplier 6 producer","uuid": "12345678906","contacts": [],"user":7,"surname": "prod","name": "prod6","address": 26} },
{"pk": 7,"model":"base.person", "fields": {"display_name": "personSupplier 7 producer","uuid": "12345678907","contacts": [],"user":8,"surname": "prod","name": "prod7","address": 27} },
{"pk": 8,"model":"base.person", "fields": {"display_name": "personSupplier 8 producer","uuid": "12345678908","contacts": [],"user":9,"surname": "prod","name": "prod8","address": 28} },
{"pk": 9,"model":"base.person", "fields": {"display_name": "personSupplier 9 producer","uuid": "12345678909","contacts": [],"user":10,"surname": "prod","name": "prod9","address": 29} },
{"pk": 10,"model":"base.person", "fields": {"display_name": "personSupplier 10 producer","uuid": "12345678910","contacts": [],"user":11,"surname": "prod","name": "prod10","address": 30} },
{"pk": 11,"model":"base.person", "fields": {"display_name": "personSupplier 11 producer","uuid": "12345678911","contacts": [],"user":12,"surname": "prod","name": "prod11","address": 31} },
{"pk": 12,"model":"base.person", "fields": {"display_name": "personSupplier 12 producer","uuid": "12345678912","contacts": [],"user":13,"surname": "prod","name": "prod12","address": 32} },
{"pk": 13,"model":"base.person", "fields": {"display_name": "personSupplier 13 producer","uuid": "12345678913","contacts": [],"user":14,"surname": "prod","name": "prod13","address": 33} },
{"pk": 14,"model":"base.person", "fields": {"display_name": "personSupplier 14 producer","uuid": "12345678914","contacts": [],"user":15,"surname": "prod","name": "prod14","address": 34} },
{"pk": 15,"model":"base.person", "fields": {"display_name": "personSupplier 15 producer","uuid": "12345678915","contacts": [],"user":16,"surname": "prod","name": "prod15","address": 35} },
{"pk": 16,"model":"base.person", "fields": {"display_name": "personSupplier 16 producer","uuid": "12345678916","contacts": [],"user":17,"surname": "prod","name": "prod16","address": 36} },
{"pk": 17,"model":"base.person", "fields": {"display_name": "personSupplier 17 producer","uuid": "12345678917","contacts": [],"user":18,"surname": "prod","name": "prod17","address": 37} },
{"pk": 18,"model":"base.person", "fields": {"display_name": "personSupplier 18 producer","uuid": "12345678918","contacts": [],"user":19,"surname": "prod","name": "prod18","address": 38} },
{"pk": 19,"model":"base.person", "fields": {"display_name": "personSupplier 19 producer","uuid": "12345678919","contacts": [],"user":20,"surname": "prod","name": "prod19","address": 39} },
{"pk": 20,"model":"base.person", "fields": {"display_name": "personSupplier 20 producer","uuid": "12345678920","contacts": [],"user":21,"surname": "prod","name": "prod20","address": 40} },
{"pk": 21,"model":"base.person", "fields": {"display_name": "personSupplier 21 producer","uuid": "12345678921","contacts": [],"user":22,"surname": "prod","name": "prod21","address": 41} },
{"pk": 22,"model":"base.person", "fields": {"display_name": "personSupplier 22 producer","uuid": "12345678922","contacts": [],"user":23,"surname": "prod","name": "prod22","address": 42} },
{"pk": 23,"model":"base.person", "fields": {"display_name": "personSupplier 23 producer","uuid": "12345678923","contacts": [],"user":24,"surname": "prod","name": "prod23","address": 43} },
{"pk": 24,"model":"base.person", "fields": {"display_name": "personSupplier 24 producer","uuid": "12345678924","contacts": [],"user":25,"surname": "prod","name": "prod24","address": 44} },
{"pk": 25,"model":"base.person", "fields": {"display_name": "personSupplier 25 producer","uuid": "12345678925","contacts": [],"user":26,"surname": "prod","name": "prod25","address": 45} },
{"pk": 26,"model":"base.person", "fields": {"display_name": "personSupplier 26 producer","uuid": "12345678926","contacts": [],"user":27,"surname": "prod","name": "prod26","address": 46} },
{"pk": 27,"model":"base.person", "fields": {"display_name": "personSupplier 27 producer","uuid": "12345678927","contacts": [],"user":28,"surname": "prod","name": "prod27","address": 47} },
{"pk": 28,"model":"base.person", "fields": {"display_name": "personSupplier 28 producer","uuid": "12345678928","contacts": [],"user":29,"surname": "prod","name": "prod28","address": 48} },
{"pk": 29,"model":"base.person", "fields": {"display_name": "personSupplier 29 producer","uuid": "12345678929","contacts": [],"user":30,"surname": "prod","name": "prod29","address": 49} },
{"pk": 30,"model":"base.person", "fields": {"display_name": "personSupplier 30 producer","uuid": "12345678930","contacts": [],"user":31,"surname": "prod","name": "prod30","address": 50} },
{"pk": 31,"model":"base.person", "fields": {"display_name": "personSupplier 31 producer","uuid": "12345678931","contacts": [],"user":32,"surname": "prod","name": "prod31","address": 51} },
{"pk": 32,"model":"base.person", "fields": {"display_name": "personSupplier 32 producer","uuid": "12345678932","contacts": [],"user":33,"surname": "prod","name": "prod32","address": 52} },
{"pk": 33,"model":"base.person", "fields": {"display_name": "personSupplier 33 producer","uuid": "12345678933","contacts": [],"user":34,"surname": "prod","name": "prod33","address": 53} },
{"pk": 34,"model":"base.person", "fields": {"display_name": "personSupplier 34 producer","uuid": "12345678934","contacts": [],"user":35,"surname": "prod","name": "prod34","address": 54} },
{"pk": 35,"model":"base.person", "fields": {"display_name": "personSupplier 35 producer","uuid": "12345678935","contacts": [],"user":36,"surname": "prod","name": "prod35","address": 55} },
{"pk": 36,"model":"base.person", "fields": {"display_name": "personSupplier 36 producer","uuid": "12345678936","contacts": [],"user":37,"surname": "prod","name": "prod36","address": 56} },
{"pk": 37,"model":"base.person", "fields": {"display_name": "personSupplier 37 producer","uuid": "12345678937","contacts": [],"user":38,"surname": "prod","name": "prod37","address": 57} },
{"pk": 38,"model":"base.person", "fields": {"display_name": "personSupplier 38 producer","uuid": "12345678938","contacts": [],"user":39,"surname": "prod","name": "prod38","address": 58} },
{"pk": 39,"model":"base.person", "fields": {"display_name": "personSupplier 39 producer","uuid": "12345678939","contacts": [],"user":40,"surname": "prod","name": "prod39","address": 59} },
{"pk": 40,"model":"base.person", "fields": {"display_name": "personSupplier 40 producer","uuid": "12345678940","contacts": [],"user":41,"surname": "prod","name": "prod40","address": 60} },
{"pk": 41,"model":"base.person", "fields": {"display_name": "personSupplier 41 producer","uuid": "12345678941","contacts": [],"user":42,"surname": "prod","name": "prod41","address": 61} },
{"pk": 42,"model":"base.person", "fields": {"display_name": "personSupplier 42 producer","uuid": "12345678942","contacts": [],"user":43,"surname": "prod","name": "prod42","address": 62} },
{"pk": 43,"model":"base.person", "fields": {"display_name": "personSupplier 43 producer","uuid": "12345678943","contacts": [],"user":44,"surname": "prod","name": "prod43","address": 63} },
{"pk": 44,"model":"base.person", "fields": {"display_name": "personSupplier 44 producer","uuid": "12345678944","contacts": [],"user":45,"surname": "prod","name": "prod44","address": 64} },
{"pk": 45,"model":"base.person", "fields": {"display_name": "personSupplier 45 producer","uuid": "12345678945","contacts": [],"user":46,"surname": "prod","name": "prod45","address": 65} },
{"pk": 46,"model":"base.person", "fields": {"display_name": "personSupplier 46 producer","uuid": "12345678946","contacts": [],"user":47,"surname": "prod","name": "prod46","address": 66} },
{"pk": 47,"model":"base.person", "fields": {"display_name": "personSupplier 47 producer","uuid": "12345678947","contacts": [],"user":48,"surname": "prod","name": "prod47","address": 67} },
{"pk": 48,"model":"base.person", "fields": {"display_name": "personSupplier 48 producer","uuid": "12345678948","contacts": [],"user":49,"surname": "prod","name": "prod48","address": 68} },
{"pk": 49,"model":"base.person", "fields": {"display_name": "personSupplier 49 producer","uuid": "12345678949","contacts": [],"user":50,"surname": "prod","name": "prod49","address": 69} },
{"pk": 50,"model":"base.person", "fields": {"display_name": "personSupplier 50 producer","uuid": "12345678950","contacts": [],"user":51,"surname": "prod","name": "prod50","address": 70} },

{"pk": 51,"model":"base.person", "fields": {"display_name": "personSupplier 1 contact","uuid": "12345678951","contacts": [],"user":52,"surname": "prod","name": "Contatto51","address": 71} },
{"pk": 52,"model":"base.person", "fields": {"display_name": "personSupplier 2 contact","uuid": "12345678952","contacts": [],"user":53,"surname": "prod","name": "Contatto52","address": 72} },
{"pk": 53,"model":"base.person", "fields": {"display_name": "personSupplier 3 contact","uuid": "12345678953","contacts": [],"user":54,"surname": "prod","name": "Contatto53","address": 73} },
{"pk": 54,"model":"base.person", "fields": {"display_name": "personSupplier 4 contact","uuid": "12345678954","contacts": [],"user":55,"surname": "prod","name": "Contatto54","address": 74} },
{"pk": 55,"model":"base.person", "fields": {"display_name": "personSupplier 5 contact","uuid": "12345678955","contacts": [],"user":56,"surname": "prod","name": "Contatto55","address": 75} },
{"pk": 56,"model":"base.person", "fields": {"display_name": "personSupplier 6 contact","uuid": "12345678956","contacts": [],"user":57,"surname": "prod","name": "Contatto56","address": 76} },
{"pk": 57,"model":"base.person", "fields": {"display_name": "personSupplier 7 contact","uuid": "12345678957","contacts": [],"user":58,"surname": "prod","name": "Contatto57","address": 77} },
{"pk": 58,"model":"base.person", "fields": {"display_name": "personSupplier 8 contact","uuid": "12345678958","contacts": [],"user":59,"surname": "prod","name": "Contatto58","address": 78} },
{"pk": 59,"model":"base.person", "fields": {"display_name": "personSupplier 9 contact","uuid": "12345678959","contacts": [],"user":60,"surname": "prod","name": "Contatto59","address": 79} },
{"pk": 60,"model":"base.person", "fields": {"display_name": "personSupplier 10 contact","uuid": "12345678960","contacts": [],"user":61,"surname": "prod","name": "Contatto60","address": 80} },
{"pk": 61,"model":"base.person", "fields": {"display_name": "personSupplier 11 contact","uuid": "12345678961","contacts": [],"user":62,"surname": "prod","name": "Contatto61","address": 81} },
{"pk": 62,"model":"base.person", "fields": {"display_name": "personSupplier 12 contact","uuid": "12345678962","contacts": [],"user":63,"surname": "prod","name": "Contatto62","address": 82} },
{"pk": 63,"model":"base.person", "fields": {"display_name": "personSupplier 13 contact","uuid": "12345678963","contacts": [],"user":64,"surname": "prod","name": "Contatto63","address": 83} },
{"pk": 64,"model":"base.person", "fields": {"display_name": "personSupplier 14 contact","uuid": "12345678964","contacts": [],"user":65,"surname": "prod","name": "Contatto64","address": 84} },
{"pk": 65,"model":"base.person", "fields": {"display_name": "personSupplier 15 contact","uuid": "12345678965","contacts": [],"user":66,"surname": "prod","name": "Contatto65","address": 85} },
{"pk": 66,"model":"base.person", "fields": {"display_name": "personSupplier 16 contact","uuid": "12345678966","contacts": [],"user":67,"surname": "prod","name": "Contatto66","address": 86} },
{"pk": 67,"model":"base.person", "fields": {"display_name": "personSupplier 17 contact","uuid": "12345678967","contacts": [],"user":68,"surname": "prod","name": "Contatto67","address": 87} },
{"pk": 68,"model":"base.person", "fields": {"display_name": "personSupplier 18 contact","uuid": "12345678968","contacts": [],"user":69,"surname": "prod","name": "Contatto68","address": 88} },
{"pk": 69,"model":"base.person", "fields": {"display_name": "personSupplier 19 contact","uuid": "12345678969","contacts": [],"user":70,"surname": "prod","name": "Contatto69","address": 89} },
{"pk": 70,"model":"base.person", "fields": {"display_name": "personSupplier 20 contact","uuid": "12345678970","contacts": [],"user":71,"surname": "prod","name": "Contatto70","address": 90} },
{"pk": 71,"model":"base.person", "fields": {"display_name": "personSupplier 21 contact","uuid": "12345678971","contacts": [],"user":72,"surname": "prod","name": "Contatto71","address": 91} },
{"pk": 72,"model":"base.person", "fields": {"display_name": "personSupplier 22 contact","uuid": "12345678972","contacts": [],"user":73,"surname": "prod","name": "Contatto72","address": 92} },
{"pk": 73,"model":"base.person", "fields": {"display_name": "personSupplier 23 contact","uuid": "12345678973","contacts": [],"user":74,"surname": "prod","name": "Contatto73","address": 93} },
{"pk": 74,"model":"base.person", "fields": {"display_name": "personSupplier 24 contact","uuid": "12345678974","contacts": [],"user":75,"surname": "prod","name": "Contatto74","address": 94} },
{"pk": 75,"model":"base.person", "fields": {"display_name": "personSupplier 25 contact","uuid": "12345678975","contacts": [],"user":76,"surname": "prod","name": "Contatto75","address": 95} },
{"pk": 76,"model":"base.person", "fields": {"display_name": "personSupplier 26 contact","uuid": "12345678976","contacts": [],"user":77,"surname": "prod","name": "Contatto76","address": 96} },
{"pk": 77,"model":"base.person", "fields": {"display_name": "personSupplier 27 contact","uuid": "12345678977","contacts": [],"user":78,"surname": "prod","name": "Contatto77","address": 97} },
{"pk": 78,"model":"base.person", "fields": {"display_name": "personSupplier 28 contact","uuid": "12345678978","contacts": [],"user":79,"surname": "prod","name": "Contatto78","address": 98} },
{"pk": 79,"model":"base.person", "fields": {"display_name": "personSupplier 29 contact","uuid": "12345678979","contacts": [],"user":80,"surname": "prod","name": "Contatto79","address": 99} },
{"pk": 80,"model":"base.person", "fields": {"display_name": "personSupplier 30 contact","uuid": "12345678980","contacts": [],"user":81,"surname": "prod","name": "Contatto80","address": 100} },
{"pk": 81,"model":"base.person", "fields": {"display_name": "personSupplier 31 contact","uuid": "12345678981","contacts": [],"user":82,"surname": "prod","name": "Contatto81","address": 101} },
{"pk": 82,"model":"base.person", "fields": {"display_name": "personSupplier 32 contact","uuid": "12345678982","contacts": [],"user":83,"surname": "prod","name": "Contatto82","address": 102} },
{"pk": 83,"model":"base.person", "fields": {"display_name": "personSupplier 33 contact","uuid": "12345678983","contacts": [],"user":84,"surname": "prod","name": "Contatto83","address": 103} },
{"pk": 84,"model":"base.person", "fields": {"display_name": "personSupplier 34 contact","uuid": "12345678984","contacts": [],"user":85,"surname": "prod","name": "Contatto84","address": 104} },
{"pk": 85,"model":"base.person", "fields": {"display_name": "personSupplier 35 contact","uuid": "12345678985","contacts": [],"user":86,"surname": "prod","name": "Contatto85","address": 105} },
{"pk": 86,"model":"base.person", "fields": {"display_name": "personSupplier 36 contact","uuid": "12345678986","contacts": [],"user":87,"surname": "prod","name": "Contatto86","address": 106} },
{"pk": 87,"model":"base.person", "fields": {"display_name": "personSupplier 37 contact","uuid": "12345678987","contacts": [],"user":88,"surname": "prod","name": "Contatto87","address": 107} },
{"pk": 88,"model":"base.person", "fields": {"display_name": "personSupplier 38 contact","uuid": "12345678988","contacts": [],"user":89,"surname": "prod","name": "Contatto88","address": 108} },
{"pk": 89,"model":"base.person", "fields": {"display_name": "personSupplier 39 contact","uuid": "12345678989","contacts": [],"user":90,"surname": "prod","name": "Contatto89","address": 109} },
{"pk": 90,"model":"base.person", "fields": {"display_name": "personSupplier 40 contact","uuid": "12345678990","contacts": [],"user":91,"surname": "prod","name": "Contatto90","address": 110} },
{"pk": 91,"model":"base.person", "fields": {"display_name": "personSupplier 41 contact","uuid": "12345678991","contacts": [],"user":92,"surname": "prod","name": "Contatto91","address": 111} },
{"pk": 92,"model":"base.person", "fields": {"display_name": "personSupplier 42 contact","uuid": "12345678992","contacts": [],"user":93,"surname": "prod","name": "Contatto92","address": 112} },
{"pk": 93,"model":"base.person", "fields": {"display_name": "personSupplier 43 contact","uuid": "12345678993","contacts": [],"user":94,"surname": "prod","name": "Contatto93","address": 113} },
{"pk": 94,"model":"base.person", "fields": {"display_name": "personSupplier 44 contact","uuid": "12345678994","contacts": [],"user":95,"surname": "prod","name": "Contatto94","address": 114} },
{"pk": 95,"model":"base.person", "fields": {"display_name": "personSupplier 45 contact","uuid": "12345678995","contacts": [],"user":96,"surname": "prod","name": "Contatto95","address": 115} },
{"pk": 96,"model":"base.person", "fields": {"display_name": "personSupplier 46 contact","uuid": "12345678996","contacts": [],"user":97,"surname": "prod","name": "Contatto96","address": 116} },
{"pk": 97,"model":"base.person", "fields": {"display_name": "personSupplier 47 contact","uuid": "12345678997","contacts": [],"user":98,"surname": "prod","name": "Contatto97","address": 117} },
{"pk": 98,"model":"base.person", "fields": {"display_name": "personSupplier 48 contact","uuid": "12345678998","contacts": [],"user":99,"surname": "prod","name": "Contatto98","address": 118} },
{"pk": 99,"model":"base.person", "fields": {"display_name": "personSupplier 49 contact","uuid": "12345678999","contacts": [],"user":100,"surname": "prod","name": "Contatto99","address": 119} },
{"pk": 100,"model":"base.person", "fields": {"display_name": "personSupplier 50 contact","uuid": "12345679000","contacts": [],"user":101,"surname": "prod","name": "Contatto100","address": 120} },

<<<<<<< HEAD
=======



>>>>>>> User's Fixtures  to associate with Person. Minor fix for SupplierStoc fixtures
{"pk": 101,"model":"base.person", "fields": {"display_name": "personGassista 1","uuid": "12345679001","contacts": [],"user":102,"surname": "gassi","name": "gm1","address": 121} },
{"pk": 102,"model":"base.person", "fields": {"display_name": "personGassista 2","uuid": "12345679002","contacts": [],"user":103,"surname": "gassi","name": "gm2","address": 122} },
{"pk": 103,"model":"base.person", "fields": {"display_name": "personGassista 3","uuid": "12345679003","contacts": [],"user":104,"surname": "gassi","name": "gm3","address": 123} },
{"pk": 104,"model":"base.person", "fields": {"display_name": "personGassista 4","uuid": "12345679004","contacts": [],"user":105,"surname": "gassi","name": "gm4","address": 124} },
{"pk": 105,"model":"base.person", "fields": {"display_name": "personGassista 5","uuid": "12345679005","contacts": [],"user":106,"surname": "gassi","name": "gm5","address": 125} },
{"pk": 106,"model":"base.person", "fields": {"display_name": "personGassista 6","uuid": "12345679006","contacts": [],"user":107,"surname": "gassi","name": "gm6","address": 126} },
{"pk": 107,"model":"base.person", "fields": {"display_name": "personGassista 7","uuid": "12345679007","contacts": [],"user":108,"surname": "gassi","name": "gm7","address": 127} },
{"pk": 108,"model":"base.person", "fields": {"display_name": "personGassista 8","uuid": "12345679008","contacts": [],"user":109,"surname": "gassi","name": "gm8","address": 128} },
{"pk": 109,"model":"base.person", "fields": {"display_name": "personGassista 9","uuid": "12345679009","contacts": [],"user":110,"surname": "gassi","name": "gm9","address": 129} },
{"pk": 110,"model":"base.person", "fields": {"display_name": "personGassista 10","uuid": "12345679010","contacts": [],"user":111,"surname": "gassi","name": "gm10","address": 130} },
{"pk": 111,"model":"base.person", "fields": {"display_name": "personGassista 11","uuid": "12345679011","contacts": [],"user":112,"surname": "gassi","name": "gm11","address": 131} },
{"pk": 112,"model":"base.person", "fields": {"display_name": "personGassista 12","uuid": "12345679012","contacts": [],"user":113,"surname": "gassi","name": "gm12","address": 132} },
{"pk": 113,"model":"base.person", "fields": {"display_name": "personGassista 13","uuid": "12345679013","contacts": [],"user":114,"surname": "gassi","name": "gm13","address": 133} },
{"pk": 114,"model":"base.person", "fields": {"display_name": "personGassista 14","uuid": "12345679014","contacts": [],"user":115,"surname": "gassi","name": "gm14","address": 134} },
{"pk": 115,"model":"base.person", "fields": {"display_name": "personGassista 15","uuid": "12345679015","contacts": [],"user":116,"surname": "gassi","name": "gm15","address": 135} },
{"pk": 116,"model":"base.person", "fields": {"display_name": "personGassista 16","uuid": "12345679016","contacts": [],"user":117,"surname": "gassi","name": "gm16","address": 136} },
{"pk": 117,"model":"base.person", "fields": {"display_name": "personGassista 17","uuid": "12345679017","contacts": [],"user":118,"surname": "gassi","name": "gm17","address": 137} },
{"pk": 118,"model":"base.person", "fields": {"display_name": "personGassista 18","uuid": "12345679018","contacts": [],"user":119,"surname": "gassi","name": "gm18","address": 138} },
{"pk": 119,"model":"base.person", "fields": {"display_name": "personGassista 19","uuid": "12345679019","contacts": [],"user":120,"surname": "gassi","name": "gm19","address": 139} },
{"pk": 120,"model":"base.person", "fields": {"display_name": "personGassista 20","uuid": "12345679020","contacts": [],"user":121,"surname": "gassi","name": "gm20","address": 140} },
{"pk": 121,"model":"base.person", "fields": {"display_name": "personGassista 21","uuid": "12345679021","contacts": [],"user":122,"surname": "gassi","name": "gm21","address": 141} },
{"pk": 122,"model":"base.person", "fields": {"display_name": "personGassista 22","uuid": "12345679022","contacts": [],"user":123,"surname": "gassi","name": "gm22","address": 142} },
{"pk": 123,"model":"base.person", "fields": {"display_name": "personGassista 23","uuid": "12345679023","contacts": [],"user":124,"surname": "gassi","name": "gm23","address": 143} },
{"pk": 124,"model":"base.person", "fields": {"display_name": "personGassista 24","uuid": "12345679024","contacts": [],"user":125,"surname": "gassi","name": "gm24","address": 144} },
{"pk": 125,"model":"base.person", "fields": {"display_name": "personGassista 25","uuid": "12345679025","contacts": [],"user":126,"surname": "gassi","name": "gm25","address": 145} },
{"pk": 126,"model":"base.person", "fields": {"display_name": "personGassista 26","uuid": "12345679026","contacts": [],"user":127,"surname": "gassi","name": "gm26","address": 146} },
{"pk": 127,"model":"base.person", "fields": {"display_name": "personGassista 27","uuid": "12345679027","contacts": [],"user":128,"surname": "gassi","name": "gm27","address": 147} },
{"pk": 128,"model":"base.person", "fields": {"display_name": "personGassista 28","uuid": "12345679028","contacts": [],"user":129,"surname": "gassi","name": "gm28","address": 148} },
{"pk": 129,"model":"base.person", "fields": {"display_name": "personGassista 29","uuid": "12345679029","contacts": [],"user":130,"surname": "gassi","name": "gm29","address": 149} },
{"pk": 130,"model":"base.person", "fields": {"display_name": "personGassista 30","uuid": "12345679030","contacts": [],"user":131,"surname": "gassi","name": "gm30","address": 150} },
{"pk": 131,"model":"base.person", "fields": {"display_name": "personGassista 31","uuid": "12345679031","contacts": [],"user":132,"surname": "gassi","name": "gm31","address": 151} },
{"pk": 132,"model":"base.person", "fields": {"display_name": "personGassista 32","uuid": "12345679032","contacts": [],"user":133,"surname": "gassi","name": "gm32","address": 152} },
{"pk": 133,"model":"base.person", "fields": {"display_name": "personGassista 33","uuid": "12345679033","contacts": [],"user":134,"surname": "gassi","name": "gm33","address": 153} },
{"pk": 134,"model":"base.person", "fields": {"display_name": "personGassista 34","uuid": "12345679034","contacts": [],"user":135,"surname": "gassi","name": "gm34","address": 154} },
{"pk": 135,"model":"base.person", "fields": {"display_name": "personGassista 35","uuid": "12345679035","contacts": [],"user":136,"surname": "gassi","name": "gm35","address": 155} },
{"pk": 136,"model":"base.person", "fields": {"display_name": "personGassista 36","uuid": "12345679036","contacts": [],"user":137,"surname": "gassi","name": "gm36","address": 156} },
{"pk": 137,"model":"base.person", "fields": {"display_name": "personGassista 37","uuid": "12345679037","contacts": [],"user":138,"surname": "gassi","name": "gm37","address": 157} },
{"pk": 138,"model":"base.person", "fields": {"display_name": "personGassista 38","uuid": "12345679038","contacts": [],"user":139,"surname": "gassi","name": "gm38","address": 158} },
{"pk": 139,"model":"base.person", "fields": {"display_name": "personGassista 39","uuid": "12345679039","contacts": [],"user":140,"surname": "gassi","name": "gm39","address": 159} },
{"pk": 140,"model":"base.person", "fields": {"display_name": "personGassista 40","uuid": "12345679040","contacts": [],"user":141,"surname": "gassi","name": "gm40","address": 160} },
{"pk": 141,"model":"base.person", "fields": {"display_name": "personGassista 41","uuid": "12345679041","contacts": [],"user":142,"surname": "gassi","name": "gm41","address": 161} },
{"pk": 142,"model":"base.person", "fields": {"display_name": "personGassista 42","uuid": "12345679042","contacts": [],"user":143,"surname": "gassi","name": "gm42","address": 162} },
{"pk": 143,"model":"base.person", "fields": {"display_name": "personGassista 43","uuid": "12345679043","contacts": [],"user":144,"surname": "gassi","name": "gm43","address": 163} },
{"pk": 144,"model":"base.person", "fields": {"display_name": "personGassista 44","uuid": "12345679044","contacts": [],"user":145,"surname": "gassi","name": "gm44","address": 164} },
{"pk": 145,"model":"base.person", "fields": {"display_name": "personGassista 45","uuid": "12345679045","contacts": [],"user":146,"surname": "gassi","name": "gm45","address": 165} },
{"pk": 146,"model":"base.person", "fields": {"display_name": "personGassista 46","uuid": "12345679046","contacts": [],"user":147,"surname": "gassi","name": "gm46","address": 166} },
{"pk": 147,"model":"base.person", "fields": {"display_name": "personGassista 47","uuid": "12345679047","contacts": [],"user":148,"surname": "gassi","name": "gm47","address": 167} },
{"pk": 148,"model":"base.person", "fields": {"display_name": "personGassista 48","uuid": "12345679048","contacts": [],"user":149,"surname": "gassi","name": "gm48","address": 168} },
{"pk": 149,"model":"base.person", "fields": {"display_name": "personGassista 49","uuid": "12345679049","contacts": [],"user":150,"surname": "gassi","name": "gm49","address": 169} },
{"pk": 150,"model":"base.person", "fields": {"display_name": "personGassista 50","uuid": "12345679050","contacts": [],"user":151,"surname": "gassi","name": "gm50","address": 170} },
{"pk": 151,"model":"base.person", "fields": {"display_name": "personGassista 51","uuid": "12345679051","contacts": [],"user":152,"surname": "gassi","name": "gm51","address": 171} },
{"pk": 152,"model":"base.person", "fields": {"display_name": "personGassista 52","uuid": "12345679052","contacts": [],"user":153,"surname": "gassi","name": "gm52","address": 172} },
{"pk": 153,"model":"base.person", "fields": {"display_name": "personGassista 53","uuid": "12345679053","contacts": [],"user":154,"surname": "gassi","name": "gm53","address": 173} },
{"pk": 154,"model":"base.person", "fields": {"display_name": "personGassista 54","uuid": "12345679054","contacts": [],"user":155,"surname": "gassi","name": "gm54","address": 174} },
{"pk": 155,"model":"base.person", "fields": {"display_name": "personGassista 55","uuid": "12345679055","contacts": [],"user":156,"surname": "gassi","name": "gm55","address": 175} },
{"pk": 156,"model":"base.person", "fields": {"display_name": "personGassista 56","uuid": "12345679056","contacts": [],"user":157,"surname": "gassi","name": "gm56","address": 176} },
{"pk": 157,"model":"base.person", "fields": {"display_name": "personGassista 57","uuid": "12345679057","contacts": [],"user":158,"surname": "gassi","name": "gm57","address": 177} },
{"pk": 158,"model":"base.person", "fields": {"display_name": "personGassista 58","uuid": "12345679058","contacts": [],"user":159,"surname": "gassi","name": "gm58","address": 178} },
{"pk": 159,"model":"base.person", "fields": {"display_name": "personGassista 59","uuid": "12345679059","contacts": [],"user":160,"surname": "gassi","name": "gm59","address": 179} },
{"pk": 160,"model":"base.person", "fields": {"display_name": "personGassista 60","uuid": "12345679060","contacts": [],"user":161,"surname": "gassi","name": "gm60","address": 180} },
{"pk": 161,"model":"base.person", "fields": {"display_name": "personGassista 61","uuid": "12345679061","contacts": [],"user":162,"surname": "gassi","name": "gm61","address": 181} },
{"pk": 162,"model":"base.person", "fields": {"display_name": "personGassista 62","uuid": "12345679062","contacts": [],"user":163,"surname": "gassi","name": "gm62","address": 182} },
{"pk": 163,"model":"base.person", "fields": {"display_name": "personGassista 63","uuid": "12345679063","contacts": [],"user":164,"surname": "gassi","name": "gm63","address": 183} },
{"pk": 164,"model":"base.person", "fields": {"display_name": "personGassista 64","uuid": "12345679064","contacts": [],"user":165,"surname": "gassi","name": "gm64","address": 184} },
{"pk": 165,"model":"base.person", "fields": {"display_name": "personGassista 65","uuid": "12345679065","contacts": [],"user":166,"surname": "gassi","name": "gm65","address": 185} },
{"pk": 166,"model":"base.person", "fields": {"display_name": "personGassista 66","uuid": "12345679066","contacts": [],"user":167,"surname": "gassi","name": "gm66","address": 186} },
{"pk": 167,"model":"base.person", "fields": {"display_name": "personGassista 67","uuid": "12345679067","contacts": [],"user":168,"surname": "gassi","name": "gm67","address": 187} },
{"pk": 168,"model":"base.person", "fields": {"display_name": "personGassista 68","uuid": "12345679068","contacts": [],"user":169,"surname": "gassi","name": "gm68","address": 188} },
{"pk": 169,"model":"base.person", "fields": {"display_name": "personGassista 69","uuid": "12345679069","contacts": [],"user":170,"surname": "gassi","name": "gm69","address": 189} },
{"pk": 170,"model":"base.person", "fields": {"display_name": "personGassista 70","uuid": "12345679070","contacts": [],"user":171,"surname": "gassi","name": "gm70","address": 190} },
{"pk": 171,"model":"base.person", "fields": {"display_name": "personGassista 71","uuid": "12345679071","contacts": [],"user":172,"surname": "gassi","name": "gm71","address": 191} },
{"pk": 172,"model":"base.person", "fields": {"display_name": "personGassista 72","uuid": "12345679072","contacts": [],"user":173,"surname": "gassi","name": "gm72","address": 192} },
{"pk": 173,"model":"base.person", "fields": {"display_name": "personGassista 73","uuid": "12345679073","contacts": [],"user":174,"surname": "gassi","name": "gm73","address": 193} },
{"pk": 174,"model":"base.person", "fields": {"display_name": "personGassista 74","uuid": "12345679074","contacts": [],"user":175,"surname": "gassi","name": "gm74","address": 194} },
{"pk": 175,"model":"base.person", "fields": {"display_name": "personGassista 75","uuid": "12345679075","contacts": [],"user":176,"surname": "gassi","name": "gm75","address": 195} },
{"pk": 176,"model":"base.person", "fields": {"display_name": "personGassista 76","uuid": "12345679076","contacts": [],"user":177,"surname": "gassi","name": "gm76","address": 196} },
{"pk": 177,"model":"base.person", "fields": {"display_name": "personGassista 77","uuid": "12345679077","contacts": [],"user":178,"surname": "gassi","name": "gm77","address": 197} },
{"pk": 178,"model":"base.person", "fields": {"display_name": "personGassista 78","uuid": "12345679078","contacts": [],"user":179,"surname": "gassi","name": "gm78","address": 198} },
{"pk": 179,"model":"base.person", "fields": {"display_name": "personGassista 79","uuid": "12345679079","contacts": [],"user":180,"surname": "gassi","name": "gm79","address": 199} },
{"pk": 180,"model":"base.person", "fields": {"display_name": "personGassista 80","uuid": "12345679080","contacts": [],"user":181,"surname": "gassi","name": "gm80","address": 200} },
{"pk": 181,"model":"base.person", "fields": {"display_name": "personGassista 81","uuid": "12345679081","contacts": [],"user":182,"surname": "gassi","name": "gm81","address": 201} },
{"pk": 182,"model":"base.person", "fields": {"display_name": "personGassista 82","uuid": "12345679082","contacts": [],"user":183,"surname": "gassi","name": "gm82","address": 202} },
{"pk": 183,"model":"base.person", "fields": {"display_name": "personGassista 83","uuid": "12345679083","contacts": [],"user":184,"surname": "gassi","name": "gm83","address": 203} },
{"pk": 184,"model":"base.person", "fields": {"display_name": "personGassista 84","uuid": "12345679084","contacts": [],"user":185,"surname": "gassi","name": "gm84","address": 204} },
{"pk": 185,"model":"base.person", "fields": {"display_name": "personGassista 85","uuid": "12345679085","contacts": [],"user":186,"surname": "gassi","name": "gm85","address": 205} },
{"pk": 186,"model":"base.person", "fields": {"display_name": "personGassista 86","uuid": "12345679086","contacts": [],"user":187,"surname": "gassi","name": "gm86","address": 206} },
{"pk": 187,"model":"base.person", "fields": {"display_name": "personGassista 87","uuid": "12345679087","contacts": [],"user":188,"surname": "gassi","name": "gm87","address": 207} },
{"pk": 188,"model":"base.person", "fields": {"display_name": "personGassista 88","uuid": "12345679088","contacts": [],"user":189,"surname": "gassi","name": "gm88","address": 208} },
{"pk": 189,"model":"base.person", "fields": {"display_name": "personGassista 89","uuid": "12345679089","contacts": [],"user":190,"surname": "gassi","name": "gm89","address": 209} },
{"pk": 190,"model":"base.person", "fields": {"display_name": "personGassista 90","uuid": "12345679090","contacts": [],"user":191,"surname": "gassi","name": "gm90","address": 210} },
{"pk": 191,"model":"base.person", "fields": {"display_name": "personGassista 91","uuid": "12345679091","contacts": [],"user":192,"surname": "gassi","name": "gm91","address": 211} },
{"pk": 192,"model":"base.person", "fields": {"display_name": "personGassista 92","uuid": "12345679092","contacts": [],"user":193,"surname": "gassi","name": "gm92","address": 212} },
{"pk": 193,"model":"base.person", "fields": {"display_name": "personGassista 93","uuid": "12345679093","contacts": [],"user":194,"surname": "gassi","name": "gm93","address": 213} },
{"pk": 194,"model":"base.person", "fields": {"display_name": "personGassista 94","uuid": "12345679094","contacts": [],"user":195,"surname": "gassi","name": "gm94","address": 214} },
{"pk": 195,"model":"base.person", "fields": {"display_name": "personGassista 95","uuid": "12345679095","contacts": [],"user":196,"surname": "gassi","name": "gm95","address": 215} },
{"pk": 196,"model":"base.person", "fields": {"display_name": "personGassista 96","uuid": "12345679096","contacts": [],"user":197,"surname": "gassi","name": "gm96","address": 216} },
{"pk": 197,"model":"base.person", "fields": {"display_name": "personGassista 97","uuid": "12345679097","contacts": [],"user":198,"surname": "gassi","name": "gm97","address": 217} },
{"pk": 198,"model":"base.person", "fields": {"display_name": "personGassista 98","uuid": "12345679098","contacts": [],"user":199,"surname": "gassi","name": "gm98","address": 218} },
{"pk": 199,"model":"base.person", "fields": {"display_name": "personGassista 99","uuid": "12345679099","contacts": [],"user":200,"surname": "gassi","name": "gm99","address": 219} },
{"pk": 200,"model":"base.person", "fields": {"display_name": "personGassista 100","uuid": "12345679100","contacts": [],"user":201,"surname": "gassi","name": "gm100","address": 220} },
{"pk": 201,"model":"base.person", "fields": {"display_name": "personGassista 101","uuid": "12345679101","contacts": [],"user":202,"surname": "gassi","name": "gm101","address": 221} },
{"pk": 202,"model":"base.person", "fields": {"display_name": "personGassista 102","uuid": "12345679102","contacts": [],"user":203,"surname": "gassi","name": "gm102","address": 222} },
{"pk": 203,"model":"base.person", "fields": {"display_name": "personGassista 103","uuid": "12345679103","contacts": [],"user":204,"surname": "gassi","name": "gm103","address": 223} },
{"pk": 204,"model":"base.person", "fields": {"display_name": "personGassista 104","uuid": "12345679104","contacts": [],"user":205,"surname": "gassi","name": "gm104","address": 224} },
{"pk": 205,"model":"base.person", "fields": {"display_name": "personGassista 105","uuid": "12345679105","contacts": [],"user":206,"surname": "gassi","name": "gm105","address": 225} },
{"pk": 206,"model":"base.person", "fields": {"display_name": "personGassista 106","uuid": "12345679106","contacts": [],"user":207,"surname": "gassi","name": "gm106","address": 226} },
{"pk": 207,"model":"base.person", "fields": {"display_name": "personGassista 107","uuid": "12345679107","contacts": [],"user":208,"surname": "gassi","name": "gm107","address": 227} },
{"pk": 208,"model":"base.person", "fields": {"display_name": "personGassista 108","uuid": "12345679108","contacts": [],"user":209,"surname": "gassi","name": "gm108","address": 228} },
{"pk": 209,"model":"base.person", "fields": {"display_name": "personGassista 109","uuid": "12345679109","contacts": [],"user":210,"surname": "gassi","name": "gm109","address": 229} },
{"pk": 210,"model":"base.person", "fields": {"display_name": "personGassista 110","uuid": "12345679110","contacts": [],"user":211,"surname": "gassi","name": "gm110","address": 230} },
{"pk": 211,"model":"base.person", "fields": {"display_name": "personGassista 111","uuid": "12345679111","contacts": [],"user":212,"surname": "gassi","name": "gm111","address": 231} },
{"pk": 212,"model":"base.person", "fields": {"display_name": "personGassista 112","uuid": "12345679112","contacts": [],"user":213,"surname": "gassi","name": "gm112","address": 232} },
{"pk": 213,"model":"base.person", "fields": {"display_name": "personGassista 113","uuid": "12345679113","contacts": [],"user":214,"surname": "gassi","name": "gm113","address": 233} },
{"pk": 214,"model":"base.person", "fields": {"display_name": "personGassista 114","uuid": "12345679114","contacts": [],"user":215,"surname": "gassi","name": "gm114","address": 234} },
{"pk": 215,"model":"base.person", "fields": {"display_name": "personGassista 115","uuid": "12345679115","contacts": [],"user":216,"surname": "gassi","name": "gm115","address": 235} },
{"pk": 216,"model":"base.person", "fields": {"display_name": "personGassista 116","uuid": "12345679116","contacts": [],"user":217,"surname": "gassi","name": "gm116","address": 236} },
{"pk": 217,"model":"base.person", "fields": {"display_name": "personGassista 117","uuid": "12345679117","contacts": [],"user":218,"surname": "gassi","name": "gm117","address": 237} },
{"pk": 218,"model":"base.person", "fields": {"display_name": "personGassista 118","uuid": "12345679118","contacts": [],"user":219,"surname": "gassi","name": "gm118","address": 238} },
{"pk": 219,"model":"base.person", "fields": {"display_name": "personGassista 119","uuid": "12345679119","contacts": [],"user":220,"surname": "gassi","name": "gm119","address": 239} },
{"pk": 220,"model":"base.person", "fields": {"display_name": "personGassista 120","uuid": "12345679120","contacts": [],"user":221,"surname": "gassi","name": "gm120","address": 240} },
{"pk": 221,"model":"base.person", "fields": {"display_name": "personGassista 121","uuid": "12345679121","contacts": [],"user":222,"surname": "gassi","name": "gm121","address": 241} },
{"pk": 222,"model":"base.person", "fields": {"display_name": "personGassista 122","uuid": "12345679122","contacts": [],"user":223,"surname": "gassi","name": "gm122","address": 242} },
{"pk": 223,"model":"base.person", "fields": {"display_name": "personGassista 123","uuid": "12345679123","contacts": [],"user":224,"surname": "gassi","name": "gm123","address": 243} },
{"pk": 224,"model":"base.person", "fields": {"display_name": "personGassista 124","uuid": "12345679124","contacts": [],"user":225,"surname": "gassi","name": "gm124","address": 244} },
{"pk": 225,"model":"base.person", "fields": {"display_name": "personGassista 125","uuid": "12345679125","contacts": [],"user":226,"surname": "gassi","name": "gm125","address": 245} },
{"pk": 226,"model":"base.person", "fields": {"display_name": "personGassista 126","uuid": "12345679126","contacts": [],"user":227,"surname": "gassi","name": "gm126","address": 246} },
{"pk": 227,"model":"base.person", "fields": {"display_name": "personGassista 127","uuid": "12345679127","contacts": [],"user":228,"surname": "gassi","name": "gm127","address": 247} },
{"pk": 228,"model":"base.person", "fields": {"display_name": "personGassista 128","uuid": "12345679128","contacts": [],"user":229,"surname": "gassi","name": "gm128","address": 248} },
{"pk": 229,"model":"base.person", "fields": {"display_name": "personGassista 129","uuid": "12345679129","contacts": [],"user":230,"surname": "gassi","name": "gm129","address": 249} },
{"pk": 230,"model":"base.person", "fields": {"display_name": "personGassista 130","uuid": "12345679130","contacts": [],"user":231,"surname": "gassi","name": "gm130","address": 250} },
{"pk": 231,"model":"base.person", "fields": {"display_name": "personGassista 131","uuid": "12345679131","contacts": [],"user":232,"surname": "gassi","name": "gm131","address": 251} },
{"pk": 232,"model":"base.person", "fields": {"display_name": "personGassista 132","uuid": "12345679132","contacts": [],"user":233,"surname": "gassi","name": "gm132","address": 252} },
{"pk": 233,"model":"base.person", "fields": {"display_name": "personGassista 133","uuid": "12345679133","contacts": [],"user":234,"surname": "gassi","name": "gm133","address": 253} },
{"pk": 234,"model":"base.person", "fields": {"display_name": "personGassista 134","uuid": "12345679134","contacts": [],"user":235,"surname": "gassi","name": "gm134","address": 254} },
{"pk": 235,"model":"base.person", "fields": {"display_name": "personGassista 135","uuid": "12345679135","contacts": [],"user":236,"surname": "gassi","name": "gm135","address": 255} },
{"pk": 236,"model":"base.person", "fields": {"display_name": "personGassista 136","uuid": "12345679136","contacts": [],"user":237,"surname": "gassi","name": "gm136","address": 256} },
{"pk": 237,"model":"base.person", "fields": {"display_name": "personGassista 137","uuid": "12345679137","contacts": [],"user":238,"surname": "gassi","name": "gm137","address": 257} },
{"pk": 238,"model":"base.person", "fields": {"display_name": "personGassista 138","uuid": "12345679138","contacts": [],"user":239,"surname": "gassi","name": "gm138","address": 258} },
{"pk": 239,"model":"base.person", "fields": {"display_name": "personGassista 139","uuid": "12345679139","contacts": [],"user":240,"surname": "gassi","name": "gm139","address": 259} },
{"pk": 240,"model":"base.person", "fields": {"display_name": "personGassista 140","uuid": "12345679140","contacts": [],"user":241,"surname": "gassi","name": "gm140","address": 260} },
{"pk": 241,"model":"base.person", "fields": {"display_name": "personGassista 141","uuid": "12345679141","contacts": [],"user":242,"surname": "gassi","name": "gm141","address": 261} },
{"pk": 242,"model":"base.person", "fields": {"display_name": "personGassista 142","uuid": "12345679142","contacts": [],"user":243,"surname": "gassi","name": "gm142","address": 262} },
{"pk": 243,"model":"base.person", "fields": {"display_name": "personGassista 143","uuid": "12345679143","contacts": [],"user":244,"surname": "gassi","name": "gm143","address": 263} },
{"pk": 244,"model":"base.person", "fields": {"display_name": "personGassista 144","uuid": "12345679144","contacts": [],"user":245,"surname": "gassi","name": "gm144","address": 264} },
{"pk": 245,"model":"base.person", "fields": {"display_name": "personGassista 145","uuid": "12345679145","contacts": [],"user":246,"surname": "gassi","name": "gm145","address": 265} },
{"pk": 246,"model":"base.person", "fields": {"display_name": "personGassista 146","uuid": "12345679146","contacts": [],"user":247,"surname": "gassi","name": "gm146","address": 266} },
{"pk": 247,"model":"base.person", "fields": {"display_name": "personGassista 147","uuid": "12345679147","contacts": [],"user":248,"surname": "gassi","name": "gm147","address": 267} },
{"pk": 248,"model":"base.person", "fields": {"display_name": "personGassista 148","uuid": "12345679148","contacts": [],"user":249,"surname": "gassi","name": "gm148","address": 268} },
{"pk": 249,"model":"base.person", "fields": {"display_name": "personGassista 149","uuid": "12345679149","contacts": [],"user":250,"surname": "gassi","name": "gm149","address": 269} },
{"pk": 250,"model":"base.person", "fields": {"display_name": "personGassista 150","uuid": "12345679150","contacts": [],"user":251,"surname": "gassi","name": "gm150","address": 270} },
{"pk": 251,"model":"base.person", "fields": {"display_name": "personGassista 151","uuid": "12345679151","contacts": [],"user":252,"surname": "gassi","name": "gm151","address": 271} },
{"pk": 252,"model":"base.person", "fields": {"display_name": "personGassista 152","uuid": "12345679152","contacts": [],"user":253,"surname": "gassi","name": "gm152","address": 272} },
{"pk": 253,"model":"base.person", "fields": {"display_name": "personGassista 153","uuid": "12345679153","contacts": [],"user":254,"surname": "gassi","name": "gm153","address": 273} },
{"pk": 254,"model":"base.person", "fields": {"display_name": "personGassista 154","uuid": "12345679154","contacts": [],"user":255,"surname": "gassi","name": "gm154","address": 274} },
{"pk": 255,"model":"base.person", "fields": {"display_name": "personGassista 155","uuid": "12345679155","contacts": [],"user":256,"surname": "gassi","name": "gm155","address": 275} },
{"pk": 256,"model":"base.person", "fields": {"display_name": "personGassista 156","uuid": "12345679156","contacts": [],"user":257,"surname": "gassi","name": "gm156","address": 276} },
{"pk": 257,"model":"base.person", "fields": {"display_name": "personGassista 157","uuid": "12345679157","contacts": [],"user":258,"surname": "gassi","name": "gm157","address": 277} },
{"pk": 258,"model":"base.person", "fields": {"display_name": "personGassista 158","uuid": "12345679158","contacts": [],"user":259,"surname": "gassi","name": "gm158","address": 278} },
{"pk": 259,"model":"base.person", "fields": {"display_name": "personGassista 159","uuid": "12345679159","contacts": [],"user":260,"surname": "gassi","name": "gm159","address": 279} },
{"pk": 260,"model":"base.person", "fields": {"display_name": "personGassista 160","uuid": "12345679160","contacts": [],"user":261,"surname": "gassi","name": "gm160","address": 280} },
{"pk": 261,"model":"base.person", "fields": {"display_name": "personGassista 161","uuid": "12345679161","contacts": [],"user":262,"surname": "gassi","name": "gm161","address": 281} },
{"pk": 262,"model":"base.person", "fields": {"display_name": "personGassista 162","uuid": "12345679162","contacts": [],"user":263,"surname": "gassi","name": "gm162","address": 282} },
{"pk": 263,"model":"base.person", "fields": {"display_name": "personGassista 163","uuid": "12345679163","contacts": [],"user":264,"surname": "gassi","name": "gm163","address": 283} },
{"pk": 264,"model":"base.person", "fields": {"display_name": "personGassista 164","uuid": "12345679164","contacts": [],"user":265,"surname": "gassi","name": "gm164","address": 284} },
{"pk": 265,"model":"base.person", "fields": {"display_name": "personGassista 165","uuid": "12345679165","contacts": [],"user":266,"surname": "gassi","name": "gm165","address": 285} },
{"pk": 266,"model":"base.person", "fields": {"display_name": "personGassista 166","uuid": "12345679166","contacts": [],"user":267,"surname": "gassi","name": "gm166","address": 286} },
{"pk": 267,"model":"base.person", "fields": {"display_name": "personGassista 167","uuid": "12345679167","contacts": [],"user":268,"surname": "gassi","name": "gm167","address": 287} },
{"pk": 268,"model":"base.person", "fields": {"display_name": "personGassista 168","uuid": "12345679168","contacts": [],"user":269,"surname": "gassi","name": "gm168","address": 288} },
{"pk": 269,"model":"base.person", "fields": {"display_name": "personGassista 169","uuid": "12345679169","contacts": [],"user":270,"surname": "gassi","name": "gm169","address": 289} },
{"pk": 270,"model":"base.person", "fields": {"display_name": "personGassista 170","uuid": "12345679170","contacts": [],"user":271,"surname": "gassi","name": "gm170","address": 290} },
{"pk": 271,"model":"base.person", "fields": {"display_name": "personGassista 171","uuid": "12345679171","contacts": [],"user":272,"surname": "gassi","name": "gm171","address": 291} },
{"pk": 272,"model":"base.person", "fields": {"display_name": "personGassista 172","uuid": "12345679172","contacts": [],"user":273,"surname": "gassi","name": "gm172","address": 292} },
{"pk": 273,"model":"base.person", "fields": {"display_name": "personGassista 173","uuid": "12345679173","contacts": [],"user":274,"surname": "gassi","name": "gm173","address": 293} },
{"pk": 274,"model":"base.person", "fields": {"display_name": "personGassista 174","uuid": "12345679174","contacts": [],"user":275,"surname": "gassi","name": "gm174","address": 294} },
{"pk": 275,"model":"base.person", "fields": {"display_name": "personGassista 175","uuid": "12345679175","contacts": [],"user":276,"surname": "gassi","name": "gm175","address": 295} },
{"pk": 276,"model":"base.person", "fields": {"display_name": "personGassista 176","uuid": "12345679176","contacts": [],"user":277,"surname": "gassi","name": "gm176","address": 296} },
{"pk": 277,"model":"base.person", "fields": {"display_name": "personGassista 177","uuid": "12345679177","contacts": [],"user":278,"surname": "gassi","name": "gm177","address": 297} },
{"pk": 278,"model":"base.person", "fields": {"display_name": "personGassista 178","uuid": "12345679178","contacts": [],"user":279,"surname": "gassi","name": "gm178","address": 298} },
{"pk": 279,"model":"base.person", "fields": {"display_name": "personGassista 179","uuid": "12345679179","contacts": [],"user":280,"surname": "gassi","name": "gm179","address": 299} },
{"pk": 280,"model":"base.person", "fields": {"display_name": "personGassista 180","uuid": "12345679180","contacts": [],"user":281,"surname": "gassi","name": "gm180","address": 300} }




]
