[
    {
        "pk": 1, 
        "model": "base.person", 
        "fields": {
            "display_name": "Mario Rossi", 
            "uuid": "", 
            "contacts": [], 
            "user": null, 
            "surname": "Rossi", 
            "name": "Mario"
        }
    }, 
    {
        "pk": 2, 
        "model": "base.person", 
        "fields": {
            "display_name": "Giorgio Bianchi", 
            "uuid": "123", 
            "contacts": [], 
            "user": null, 
            "surname": "Bianchi", 
            "name": "Giorgio "
        }
    }, 
    {
        "pk": 1, 
        "model": "base.place", 
        "fields": {
            "province": "MC", 
            "city": "CAMERINO", 
            "name": "sede111", 
            "lon": null, 
            "address": "Localit√† RIO", 
            "lat": null, 
            "description": ""
        }
    }, 
    {
        "pk": 2, 
        "model": "base.place", 
        "fields": {
            "province": "AN", 
            "city": "MATELICA", 
            "name": "sede112", 
            "lon": null, 
            "address": "", 
            "lat": null, 
            "description": ""
        }
    }, 
    {
        "pk": 3, 
        "model": "base.place", 
        "fields": {
            "province": "MC", 
            "city": "TOLENTINO", 
            "name": "sede113", 
            "lon": null, 
            "address": "", 
            "lat": null, 
            "description": ""
        }
    }, 
    {
        "pk": 4, 
        "model": "base.place", 
        "fields": {
            "province": "MC", 
            "city": "RECANATI", 
            "name": "sede114", 
            "lon": null, 
            "address": "", 
            "lat": null, 
            "description": ""
        }
    }, 
    {
        "pk": 5, 
        "model": "base.place", 
        "fields": {
            "province": "MC", 
            "city": "MACERATA", 
            "name": "sede115", 
            "lon": null, 
            "address": "", 
            "lat": null, 
            "description": ""
        }
    }, 
    {
        "pk": 6, 
        "model": "base.place", 
        "fields": {
            "province": "MC", 
            "city": "MONTEFANO", 
            "name": "sede116", 
            "lon": null, 
            "address": "", 
            "lat": null, 
            "description": ""
        }
    }, 
    {
        "pk": 7, 
        "model": "base.place", 
        "fields": {
            "province": "An", 
            "city": "Senigallia", 
            "name": "11Centro sociale Saline", 
            "lon": null, 
            "address": "via Campo Boario, 25", 
            "lat": null, 
            "description": ""
        }
    },
    {
        "pk": 8, 
        "model": "base.place", 
        "fields": {
            "province": "An", 
            "city": "Senigallia", 
            "name": "11Centro San Gregorio", 
            "lon": null, 
            "address": "via delle Cave, 16", 
            "lat": null, 
            "description": ""
        }
    }
]
