[
{"pk":1,"model": "base.place", "fields": { "city": "Città GAS sede 1", "province": "MC",  "name": "Indi: GAS 1 sede", "lon": null, "lat": null,  "address": "indirizzo GAS 1 sede",  "description": "descrizione GAS 1 sede", "zipcode": "60XXX"} },
{"pk": 2,"model":"base.place", "fields": {"province": "MC", "city": "Città GAS sede 2", "name": "Indi: GAS 2 sede", "lon": null, "lat": null,  "address": "indirizzo GAS 2 sede",  "description": "descrizione GAS 2 sede", "zipcode": "60XXX"} },

{"pk": 3,"model":"base.place", "fields": {"province": "MC", "city": "Città GAS Rit. 1", "name": "Indi: GAS 1 ritiro default", "lon": null, "lat": null,  "address": "indirizzo GAS 1 ritiro default",  "description": "descrizione GAS 1 ritiro default", "zipcode": "60XXX"} },
{"pk": 4,"model":"base.place", "fields": {"province": "MC", "city": "Città GAS Rit. 2", "name": "Indi: GAS 2 ritiro default", "lon": null, "lat": null,  "address": "indirizzo GAS 2 ritiro default",  "description": "descrizione GAS 2 ritiro default", "zipcode": "60XXX"} },

{"pk": 5,"model":"base.place", "fields": {"province": "MC", "city": "Città Prod Pr. 1", "name": "Indi: Produttore 1 principale", "lon": null, "lat": null,  "address": "indirizzo Produttore 1 principale",  "description": "descrizione Produttore 1 principale", "zipcode": "60XXX"} },
{"pk": 6,"model":"base.place", "fields": {"province": "MC", "city": "Città Prod Pr. 2", "name": "Indi: Produttore 2 principale", "lon": null, "lat": null,  "address": "indirizzo Produttore 2 principale",  "description": "descrizione Produttore 2 principale", "zipcode": "60XXX"} },

{"pk": 7,"model":"base.place", "fields": {"province": "MC", "city": "Città Prod Ctc. 1", "name": "Indi: Produttore 1 contatto", "lon": null, "lat": null,  "address": "indirizzo Produttore 1 contatto",  "description": "descrizione Produttore 1 contatto", "zipcode": "60XXX"} },
{"pk": 8,"model":"base.place", "fields": {"province": "MC", "city": "Città Prod Ctc. 2", "name": "Indi: Produttore 2 contatto", "lon": null, "lat": null,  "address": "indirizzo Produttore 2 contatto",  "description": "descrizione Produttore 2 contatto", "zipcode": "60XXX"} },

{"pk": 9,"model":"base.place", "fields": {"province": "MC", "city": "Città Gassista 1", "name": "Indi: Gassista 1 casa", "lon": null, "lat": null,  "address": "indirizzo Gassista 1 casa",  "description": "descrizione Gassista 1 casa", "zipcode": "60XXX"} },
{"pk": 10,"model":"base.place", "fields": {"province": "MC", "city": "Città Gassista 2", "name": "Indi: Gassista 2 casa", "lon": null, "lat": null,  "address": "indirizzo Gassista 2 casa",  "description": "descrizione Gassista 2 casa", "zipcode": "60XXX"} },
{"pk": 11,"model":"base.place", "fields": {"province": "MC", "city": "Città Gassista 3", "name": "Indi: Gassista 3 casa", "lon": null, "lat": null,  "address": "indirizzo Gassista 3 casa",  "description": "descrizione Gassista 3 casa", "zipcode": "60XXX"} },
{"pk": 12,"model":"base.place", "fields": {"province": "MC", "city": "Città Gassista 4", "name": "Indi: Gassista 4 casa", "lon": null, "lat": null,  "address": "indirizzo Gassista 4 casa",  "description": "descrizione Gassista 4 casa", "zipcode": "60XXX"} },

{"pk": 13,"model":"base.place", "fields": {"province": "MC", "city": "Città Prod lav. 1", "name": "Indi: Produttore 1 sede", "lon": null, "lat": null,  "address": "indirizzo Produttore 1 di produzione",  "description": "descrizione Produttore 1 di produzione", "zipcode": "70XXX"} },
{"pk": 14,"model":"base.place", "fields": {"province": "MC", "city": "Città Prod lav. 2", "name": "Indi: Produttore 2 sede", "lon": null, "lat": null,  "address": "indirizzo Produttore 2 di produzione",  "description": "descrizione Produttore 2 di produzione", "zipcode": "70XXX"} },




{"pk": 1,"model":"base.person", "fields": {"display_name": "personSupplier 1 producer","uuid": "12345678901","contacts": [],"user":2,"surname": "prod","name": "prod1","address": 5} },
{"pk": 2,"model":"base.person", "fields": {"display_name": "personSupplier 2 producer","uuid": "12345678902","contacts": [],"user":3,"surname": "prod","name": "prod2","address": 6} },

{"pk": 3,"model":"base.person", "fields": {"display_name": "personSupplier 1 contact","uuid": "12345678951","contacts": [],"user":4,"surname": "prod","name": "Contatto1","address": 7} },
{"pk": 4,"model":"base.person", "fields": {"display_name": "personSupplier 2 contact","uuid": "12345678952","contacts": [],"user":5,"surname": "prod","name": "Contatto2","address": 8} },

{"pk": 5,"model":"base.person", "fields": {"display_name": "personGassista 1","uuid": "12345679001","contacts": [],"user":6,"surname": "gassi","name": "gm1","address": 9} },
{"pk": 6,"model":"base.person", "fields": {"display_name": "personGassista 2","uuid": "12345679002","contacts": [],"user":7,"surname": "gassi","name": "gm2","address": 10} },
{"pk": 7,"model":"base.person", "fields": {"display_name": "personGassista 3","uuid": "12345679003","contacts": [],"user":8,"surname": "gassi","name": "gm3","address": 11} },
{"pk": 8,"model":"base.person", "fields": {"display_name": "personGassista 4","uuid": "12345679004","contacts": [],"user":9,"surname": "gassi","name": "gm4","address": 12} }



]
